City_ID,City,Lat,Lng,Max Temp,Humidity,Cloudiness,Wind Speed,Country,Date
0,busselton,-33.65,115.3333,14.1,80,0,4.52,AU,1676234582
1,bethel,41.3712,-73.414,8.56,45,100,0.95,US,1676234583
2,grindavik,63.8424,-22.4338,8.97,100,100,14.4,IS,1676234583
3,albany,42.6001,-73.9662,7.9,41,99,1.37,US,1676234584
4,alofi,-19.0595,-169.9187,26.94,89,75,2.57,NU,1676234584
5,mataura,-46.1927,168.8643,17.3,70,35,0.29,NZ,1676234584
6,kapaa,22.0752,-159.319,25.18,74,75,9.77,US,1676234585
7,lambarene,-0.7001,10.2406,25.87,89,88,1.74,GA,1676234585
8,hermanus,-34.4187,19.2345,22.11,69,68,3.22,ZA,1676234586
9,tiksi,71.6872,128.8694,-41.45,100,70,1.62,RU,1676234586
10,kaitangata,-46.2817,169.8464,16.24,72,92,2.06,NZ,1676234587
11,rikitea,-23.1203,-134.9692,25.89,67,36,1.58,PF,1676234587
12,kasempa,-13.4584,25.8338,18.43,91,97,1.59,ZM,1676234587
13,iquique,-20.2208,-70.1431,26.02,69,58,2.34,CL,1676234516
14,atuona,-9.8,-139.0333,26.07,75,2,7.74,PF,1676234588
15,harper,4.375,-7.7169,26.64,85,4,3.31,LR,1676234588
16,tasiilaq,65.6145,-37.6368,-5.91,68,100,4.98,GL,1676234589
17,touros,-5.1989,-35.4608,27.41,74,100,6.13,BR,1676234331
18,isabela,6.7085,121.9711,24.8,82,88,0.55,PH,1676234589
19,pundaguitan,6.3711,126.1689,26.15,81,100,3.66,PH,1676234590
20,ponta do sol,32.6667,-17.1,16.51,75,85,2.5,PT,1676234590
21,jamestown,42.097,-79.2353,9.8,18,0,2.06,US,1676234551
22,igra,57.5558,53.0547,-8.82,94,100,3.87,RU,1676234591
23,qaanaaq,77.484,-69.3632,-32.82,94,65,2.36,GL,1676234591
24,punta arenas,-53.15,-70.9167,12.06,50,40,9.77,CL,1676234591
25,weihai,37.5017,122.1136,0.72,60,100,11.87,CN,1676234349
26,esperance,-33.8667,121.9,14.76,81,0,4.33,AU,1676234592
27,san patricio,28.017,-97.5169,20.09,35,100,4.05,US,1676234593
28,barrow,71.2906,-156.7887,-27.99,76,0,5.66,US,1676234593
29,avarua,-21.2078,-159.775,29.03,79,20,4.12,CK,1676234593
30,yellowknife,62.456,-114.3525,-17.47,78,20,2.06,CA,1676234317
31,cape town,-33.9258,18.4232,21.73,83,20,6.17,ZA,1676234576
32,haines junction,60.7522,-137.5108,-5.03,80,100,0.0,CA,1676234594
33,hasaki,35.7333,140.8333,9.56,92,100,2.13,JP,1676234594
34,kungurtug,50.5994,97.5228,-25.5,92,32,1.02,RU,1676234595
35,fortuna,40.5982,-124.1573,14.4,75,0,0.45,US,1676234595
36,new norfolk,-42.7826,147.0587,12.06,66,9,0.89,AU,1676234595
37,saldanha,-33.0117,17.9442,17.92,93,0,5.59,ZA,1676234596
38,hithadhoo,-0.6,73.0833,26.9,67,2,4.21,MV,1676234596
39,lompoc,34.6391,-120.4579,20.01,60,100,8.05,US,1676234597
40,raga,8.4596,25.678,26.55,22,12,2.66,SS,1676234597
41,ushuaia,-54.8,-68.3,10.81,58,75,4.12,AR,1676234597
42,hobart,-42.8794,147.3294,12.25,72,75,4.12,AU,1676234419
43,havoysund,70.9963,24.6622,2.13,82,99,16.27,NO,1676234599
44,kawalu,-7.3817,108.2082,21.54,95,97,0.66,ID,1676234599
45,tuktoyaktuk,69.4541,-133.0374,-38.0,74,20,0.0,CA,1676234600
46,quatre cocos,-20.2078,57.7625,26.06,71,9,6.93,MU,1676234600
47,khatanga,71.9667,102.5,-15.24,96,100,2.35,RU,1676234600
48,winnemucca,40.973,-117.7357,6.09,41,43,2.85,US,1676234601
49,puerto ayora,-0.7393,-90.3518,30.98,86,96,3.13,EC,1676234601
50,cap malheureux,-19.9842,57.6142,24.7,71,7,7.68,MU,1676234601
51,hovd,48.0056,91.6419,-15.95,97,100,0.08,MN,1676234602
52,castro,-24.7911,-50.0119,20.99,88,75,0.82,BR,1676234603
53,karaton,-6.3424,106.1045,23.35,92,100,2.57,ID,1676234603
54,kargasok,59.0556,80.8572,-17.74,99,99,2.11,RU,1676234603
55,kuytun,54.3419,101.5036,-25.63,100,97,1.59,RU,1676234604
56,the valley,18.217,-63.0578,27.08,69,75,6.69,AI,1676234604
57,rapid valley,44.0625,-103.1463,12.65,24,0,10.29,US,1676234605
58,samana,19.2056,-69.3369,28.12,78,20,4.12,DO,1676234605
59,zheleznodorozhnyy,55.7503,38.0042,-6.25,99,57,2.3,RU,1676234605
60,bintulu,3.1667,113.0333,24.23,94,40,1.54,MY,1676234486
61,nikolskoye,59.7035,30.7861,1.94,97,100,5.65,RU,1676234606
62,lufilufi,-13.8745,-171.5986,28.88,74,99,4.91,WS,1676234606
63,georgetown,5.4112,100.3354,26.96,100,20,2.06,MY,1676234607
64,dezhou,37.4486,116.2925,-1.82,94,60,2.81,CN,1676234607
65,coquimbo,-29.9533,-71.3436,21.85,68,0,5.66,CL,1676234607
66,paamiut,61.994,-49.6678,-20.36,92,8,5.98,GL,1676234608
67,bluff,-46.6,168.3333,14.99,83,76,2.26,NZ,1676234608
68,aklavik,68.2191,-135.0107,-32.0,75,75,0.0,CA,1676234549
69,san cristobal,7.7669,-72.225,26.1,49,47,1.85,VE,1676234609
70,port alfred,-33.5906,26.891,22.88,95,92,1.79,ZA,1676234609
71,mar del plata,-38.0023,-57.5575,25.01,83,75,6.17,AR,1676234603
72,ribeira grande,38.5167,-28.7,15.43,67,75,8.94,PT,1676234610
73,lagoa,39.05,-27.9833,14.25,70,100,10.41,PT,1676234610
74,vaini,-21.2,-175.2,28.09,89,75,2.57,TO,1676234610
75,oktyabrskiy,54.4815,53.471,-8.98,92,100,4.6,RU,1676234611
76,sao filipe,14.8961,-24.4956,21.38,80,93,3.8,CV,1676234611
77,saint george,37.1041,-113.5841,16.35,26,0,1.54,US,1676234612
78,bredasdorp,-34.5322,20.0403,23.88,60,87,2.47,ZA,1676234612
79,saskylakh,71.9167,114.0833,-38.46,98,59,4.11,RU,1676234613
80,vardo,70.3705,31.1107,-2.01,93,100,8.75,NO,1676234613
81,pacific grove,36.6177,-121.9166,16.34,66,0,4.92,US,1676234613
82,luau,-10.7073,22.2247,18.46,98,99,2.06,AO,1676234614
83,ola,59.5833,151.2833,-19.04,95,96,3.3,RU,1676234614
84,nome,64.5011,-165.4064,-20.96,77,100,7.72,US,1676234615
85,palmer,42.1584,-72.3287,9.23,31,75,0.0,US,1676234615
86,saint-augustin,51.226,-58.6502,-10.59,94,94,4.07,CA,1676234615
87,korhogo,9.45,-5.6333,27.93,11,0,2.8,CI,1676234616
88,havre-saint-pierre,50.2334,-63.5986,-3.0,79,20,8.23,CA,1676234616
89,dubai,25.2582,55.3047,21.96,56,0,2.06,AE,1676234423
90,lodwar,3.1191,35.5973,28.73,21,0,4.19,KE,1676234616
91,buraydah,26.326,43.975,15.25,30,100,5.63,SA,1676234447
92,saint-philippe,-21.3585,55.7679,24.77,81,100,5.78,RE,1676234617
93,butaritari,3.0707,172.7902,26.17,84,79,5.69,KI,1676234617
94,beyneu,45.3167,55.2,-4.33,63,26,4.51,KZ,1676234482
95,thompson,55.7435,-97.8558,-9.91,79,100,4.63,CA,1676234593
96,nanortalik,60.1432,-45.2371,-8.52,66,100,5.21,GL,1676234617
97,port elizabeth,-33.918,25.5701,22.16,88,40,6.17,ZA,1676234618
98,pevek,69.7008,170.3133,-30.5,95,100,1.15,RU,1676234618
99,codrington,-38.2667,141.9667,15.31,58,97,5.01,AU,1676234619
100,kaspiysk,42.8816,47.6392,-1.9,100,100,3.0,RU,1676234619
101,karratha,-20.7377,116.8463,29.7,68,64,6.46,AU,1676234620
102,kodiak,57.79,-152.4072,-6.27,63,100,8.75,US,1676234598
103,bengkulu,-3.8004,102.2655,24.08,82,100,2.64,ID,1676234622
104,rock sound,24.9,-76.2,24.82,81,0,8.47,BS,1676234623
105,labuhan,-6.8844,112.2051,23.58,91,100,3.82,ID,1676234623
106,carnarvon,-24.8667,113.6333,25.28,64,0,9.22,AU,1676234624
107,kavaratti,10.5669,72.642,26.55,74,0,4.62,IN,1676234624
108,yumen,40.2833,97.2,-4.69,45,100,1.9,CN,1676234625
109,astoria,46.1879,-123.8313,10.08,76,81,1.79,US,1676234626
110,san miguel,13.4833,-88.1833,36.78,24,20,4.63,SV,1676234603
111,ancud,-41.8697,-73.8203,14.87,59,97,4.69,CL,1676234626
112,moose factory,51.2585,-80.6094,-13.0,78,100,3.6,CA,1676234627
113,isangel,-19.55,169.2667,25.06,94,100,4.12,VU,1676234627
114,nalut,30.3333,10.85,9.93,73,27,7.69,LY,1676234628
115,chapais,49.7834,-74.8492,-10.12,84,100,1.62,CA,1676234628
116,constitucion,-35.3333,-72.4167,18.84,68,15,6.3,CL,1676234629
117,callander,56.2441,-4.2164,7.44,93,40,1.58,GB,1676234629
118,bozhou,33.8772,115.7703,2.72,94,100,6.26,CN,1676234629
119,fukue,32.6881,128.8419,13.15,88,100,12.66,JP,1676234630
120,kabompo,-13.5927,24.2008,18.01,84,87,1.87,ZM,1676234630
121,san rafael,-34.6177,-68.3301,35.66,19,0,1.67,AR,1676234630
122,roald,62.5833,6.1333,9.63,81,75,11.83,NO,1676234631
123,ahipara,-35.1667,173.1667,18.95,94,100,9.8,NZ,1676234631
124,nioki,-2.7167,17.6833,23.19,86,100,1.23,CD,1676234632
125,rabo de peixe,37.8,-25.5833,14.73,82,20,4.63,PT,1676234632
126,sibolga,1.7427,98.7792,24.28,87,100,1.5,ID,1676234633
127,ust-tsilma,65.441,52.1498,-14.93,97,59,2.55,RU,1676234633
128,port hardy,50.6996,-127.4199,6.1,100,75,5.66,CA,1676234633
129,klaksvik,62.2266,-6.589,8.51,83,95,11.5,FO,1676234633
130,upernavik,72.7868,-56.1549,-25.68,94,100,3.02,GL,1676234634
131,imeni poliny osipenko,52.4201,136.4853,-32.05,100,92,0.32,RU,1676234634
132,naziya,59.8,31.3833,-0.87,1,100,6.02,RU,1676234634
133,barcelos,41.5388,-8.6151,14.08,64,100,2.56,PT,1676234635
134,presque isle,46.6811,-68.0159,1.83,63,100,5.66,US,1676234635
135,slave lake,55.2834,-114.769,2.99,65,100,2.57,CA,1676234525
136,contamana,-7.3333,-75.0167,27.66,77,94,1.71,PE,1676234636
137,camana,-16.6228,-72.7111,25.09,77,43,2.54,PE,1676234636
138,gualeguaychu,-33.0094,-58.5172,41.0,12,0,6.43,AR,1676234488
139,hilo,19.7297,-155.09,21.45,94,100,4.63,US,1676234523
140,sangmelima,2.9333,11.9833,23.55,73,77,1.92,CM,1676234637
141,faanui,-16.4833,-151.75,27.69,75,89,5.49,PF,1676234637
142,comodoro rivadavia,-45.8667,-67.5,20.92,19,0,4.12,AR,1676234637
143,tigil,57.8,158.6667,-25.46,99,97,0.92,RU,1676234638
144,te anau,-45.4167,167.7167,16.39,71,50,0.04,NZ,1676234638
145,evensk,61.95,159.2333,-24.67,90,67,3.59,RU,1676234638
146,east london,-33.0153,27.9116,23.86,85,20,5.3,ZA,1676234639
147,bonthe,7.5264,-12.505,25.45,82,2,2.95,SL,1676234639
148,pangnirtung,66.1451,-65.7125,-36.0,55,20,1.03,CA,1676234639
149,caravelas,-17.7125,-39.2481,26.55,79,40,3.07,BR,1676234529
150,barabai,-2.5833,115.3833,22.57,99,100,0.46,ID,1676234640
151,surazh,53.0175,32.3918,-9.4,95,67,3.05,RU,1676234640
152,mahebourg,-20.4081,57.7,26.16,69,40,4.12,MU,1676234413
153,beyla,8.6833,-8.6333,29.59,31,35,0.75,GN,1676234641
154,jacareacanga,-6.2222,-57.7528,26.84,95,87,0.7,BR,1676234370
155,ciudad bolivar,8.1222,-63.5497,31.24,45,100,6.36,VE,1676234641
156,yar-sale,66.8333,70.8333,-11.78,93,87,8.34,RU,1676234641
157,cody,44.5263,-109.0565,10.91,35,0,6.17,US,1676234542
158,biak,-0.9131,122.8766,24.9,77,100,1.62,ID,1676234642
159,peniche,39.3558,-9.3811,13.95,69,99,7.69,PT,1676234642
160,tianpeng,30.9866,103.9393,7.26,88,98,2.87,CN,1676234642
161,batagay-alyta,67.8006,130.4114,-42.16,95,30,2.13,RU,1676234643
162,namibe,-15.1961,12.1522,22.61,74,23,5.13,AO,1676234643
163,serrinha,-11.6642,-39.0075,27.4,57,96,6.31,BR,1676234643
164,maues,-3.3836,-57.7186,26.71,91,73,1.38,BR,1676234644
165,norman wells,65.282,-126.8329,-23.98,70,75,1.54,CA,1676234384
166,comacchio,44.6975,12.1858,5.0,77,0,2.82,IT,1676234644
167,valente,-11.4122,-39.4619,28.72,51,98,6.62,BR,1676234442
168,coihaique,-45.5752,-72.0662,14.97,41,40,4.12,CL,1676234646
169,buchanan,5.8808,-10.0467,26.13,89,20,3.69,LR,1676234647
170,dikson,73.5069,80.5464,-10.45,92,100,9.79,RU,1676234647
171,mareeba,-17.0,145.4333,22.47,90,100,1.02,AU,1676234648
172,rocky mount,35.9382,-77.7905,12.84,87,100,2.57,US,1676234642
173,fairbanks,64.8378,-147.7164,-16.62,83,100,1.54,US,1676234400
174,kavieng,-2.5744,150.7967,27.09,76,100,0.4,PG,1676234649
175,kollo,13.3043,2.339,29.24,13,0,4.64,NE,1676234649
176,hofn,64.2539,-15.2082,2.87,93,100,3.24,IS,1676234649
177,komsomolskiy,40.4272,71.7189,-1.09,55,91,0.5,UZ,1676234650
178,catuday,16.2923,119.8062,23.89,76,0,4.07,PH,1676234650
179,narsaq,60.9167,-46.05,-16.88,70,100,1.05,GL,1676234651
180,ambilobe,-13.2,49.05,23.07,94,96,0.99,MG,1676234651
181,dzhebariki-khaya,62.2167,135.8,-40.42,99,87,0.82,RU,1676234651
182,saint-louis,16.3333,-15.0,30.11,21,100,6.66,SN,1676234652
183,shitanjing,39.2342,106.3439,-9.2,51,100,3.23,CN,1676234652
184,nipawin,53.3668,-104.0009,2.02,60,0,6.17,CA,1676234652
185,adrar,20.5022,-10.0711,26.8,11,100,8.1,MR,1676234653
186,broken hill,-31.95,141.4333,15.69,47,71,6.76,AU,1676234653
187,guerrero negro,27.9769,-114.0611,14.8,60,98,3.49,MX,1676234654
188,margate,51.3813,1.3862,7.17,75,0,1.34,GB,1676234599
189,chokurdakh,70.6333,147.9167,-35.21,96,100,0.68,RU,1676234654
190,olafsvik,64.8945,-23.7142,5.54,97,100,11.48,IS,1676234655
191,ilula,-7.6766,36.0366,16.87,97,100,1.75,TZ,1676234655
192,anahuac,27.2333,-100.15,20.86,15,80,7.91,MX,1676234655
193,wahiawa,21.5028,-158.0236,24.18,65,75,3.09,US,1676234511
194,devonport,-41.1667,146.35,11.12,64,3,2.12,AU,1676234656
195,acapulco,16.8634,-99.8901,29.9,66,0,3.6,MX,1676234592
196,sovetskiy,61.3614,63.5842,-8.54,95,100,3.71,RU,1676234656
197,hazorasp,41.3194,61.0742,-4.09,35,100,4.32,UZ,1676234657
198,itaqui,-29.1253,-56.5531,40.19,14,0,4.05,BR,1676234604
199,mandalgovi,45.7625,106.2708,-15.46,76,0,4.21,MN,1676234657
200,sept-iles,50.2001,-66.3821,-1.08,58,20,4.63,CA,1676234658
201,lasa,46.6166,10.7002,6.49,74,14,0.81,IT,1676234658
202,aasiaat,68.7098,-52.8699,-35.1,100,77,1.78,GL,1676234658
203,ongandjera,-17.8833,15.0667,27.32,29,27,6.92,NA,1676234659
204,okhotsk,59.3833,143.3,-23.54,87,100,5.57,RU,1676234659
205,pankrushikha,53.8319,80.3406,-11.75,95,100,4.1,RU,1676234660
206,port moresby,-9.4431,147.1797,23.68,88,75,2.06,PG,1676234531
207,salalah,17.0151,54.0924,22.05,56,0,1.54,OM,1676234660
208,iqaluit,63.7506,-68.5145,-30.15,67,75,5.14,CA,1676234661
209,kristiinankaupunki,62.2743,21.376,2.83,86,100,5.98,FI,1676234661
210,ugoofaaru,5.6667,73.0,26.49,69,10,3.7,MV,1676234662
211,alamosa,37.4695,-105.87,8.99,21,0,2.57,US,1676234662
212,nosy varika,-20.5833,48.5333,24.71,79,97,0.29,MG,1676234663
213,arraial do cabo,-22.9661,-42.0278,27.98,83,75,4.12,BR,1676234663
214,half moon bay,37.4636,-122.4286,19.19,70,20,2.57,US,1676234663
215,tual,-5.6667,132.75,28.06,78,100,9.22,ID,1676234664
216,nyurba,63.2842,118.3319,-44.18,100,58,0.92,RU,1676234664
217,nelson bay,-32.7167,152.15,23.03,81,77,3.58,AU,1676234664
218,poya,-21.35,165.15,24.95,61,65,2.54,NC,1676234664
219,provideniya,64.3833,-173.3,-25.94,64,0,2.0,RU,1676234665
220,rio grande,-32.035,-52.0986,33.06,62,0,6.57,BR,1676234665
221,taywarah,33.35,64.4167,-6.72,65,89,1.96,AF,1676234666
222,kirkwall,58.9848,-2.9587,7.2,76,40,4.63,GB,1676234666
223,deputatskiy,69.3,139.9,-39.74,100,93,1.17,RU,1676234666
224,bilma,18.6853,12.9164,21.32,22,0,6.76,NE,1676234667
225,savinskiy,62.9342,40.1361,-8.44,90,100,4.63,RU,1676234667
226,cajibio,2.6227,-76.5704,19.48,88,95,1.07,CO,1676234668
227,narasannapeta,18.4167,84.05,21.41,87,0,2.44,IN,1676234668
228,sabang,5.8933,95.3214,26.55,80,75,2.53,ID,1676234668
229,lima,-12.0432,-77.0282,25.14,69,0,6.17,PE,1676234654
230,kokopo,-4.352,152.2633,25.9,83,100,3.14,PG,1676234669
231,castrillon,43.3979,-6.7922,4.92,76,35,2.25,ES,1676234670
232,jodhpur,26.2867,73.03,15.01,17,0,3.72,IN,1676234670
233,kunming,25.0389,102.7183,9.96,43,0,5.0,CN,1676234671
234,kabare,-2.4683,28.8242,17.01,89,100,0.33,CD,1676234671
235,port hedland,-20.3167,118.5667,30.03,89,75,3.6,AU,1676234671
236,itoman,26.1247,127.6694,22.01,94,75,5.14,JP,1676234672
237,kasangulu,-4.5911,15.1708,21.03,89,100,0.95,CD,1676234672
238,vorukh,39.8494,70.5838,-3.0,54,100,3.28,TJ,1676234672
239,necochea,-38.5473,-58.7368,23.22,67,92,8.09,AR,1676234673
240,port said,31.2565,32.2841,11.99,66,40,2.57,EG,1676234673
241,kaeo,-35.1,173.7833,19.07,95,100,9.14,NZ,1676234674
242,wanning,18.8003,110.3967,22.6,95,32,4.08,CN,1676234674
243,beloha,-25.1667,45.05,23.91,87,95,4.71,MG,1676234674
244,vila franca do campo,37.7167,-25.4333,15.23,87,82,3.59,PT,1676234675
245,gushikawa,26.3544,127.8686,21.57,94,75,3.6,JP,1676234675
246,bambous virieux,-20.3428,57.7575,26.14,69,40,4.12,MU,1676234676
247,avdon,54.6667,55.7167,-9.38,73,100,6.0,RU,1676234676
248,hervey bay,-25.2986,152.8535,25.62,85,5,5.33,AU,1676234677
249,yorosso,12.3536,-4.7761,28.25,8,2,3.87,ML,1676234677
250,ilulissat,69.2167,-51.1,-23.99,53,0,1.03,GL,1676234678
251,tessalit,20.1986,1.0114,25.22,17,67,5.21,ML,1676234678
252,ixtapa,20.7,-105.2,27.57,51,40,4.12,MX,1676234678
253,jining,35.405,116.5814,1.33,65,100,5.37,CN,1676234679
254,hami,42.8,93.45,-0.78,76,85,0.79,CN,1676234679
255,kisangani,0.5167,25.2,28.08,40,100,1.42,CD,1676234680
256,victoria,22.2855,114.1577,22.2,94,46,4.02,HK,1676234680
257,bandarbeyla,9.4942,50.8122,23.67,67,0,5.86,SO,1676234680
258,broome,42.2506,-75.833,8.99,31,0,0.45,US,1676234681
259,uvat,59.1433,68.8953,-15.52,97,98,3.36,RU,1676234681
260,nanakuli,21.3906,-158.1547,25.97,56,0,4.63,US,1676234681
261,malvern,34.3623,-92.813,17.75,23,69,2.5,US,1676234467
262,kysyl-syr,63.8986,122.7617,-41.74,100,47,1.48,RU,1676234682
263,tazovskiy,67.4667,78.7,-13.99,93,100,7.93,RU,1676234682
264,asfi,32.2994,-9.2372,16.95,60,100,7.21,MA,1676234683
265,itaueira,-7.6033,-43.0256,30.83,35,100,1.19,BR,1676234683
266,cidreira,-30.1811,-50.2056,26.08,75,0,5.99,BR,1676234683
267,rawson,-43.3002,-65.1023,17.87,61,91,5.56,AR,1676234684
268,luena,-11.7833,19.9167,16.64,98,79,2.13,AO,1676234684
269,williston,48.147,-103.618,3.78,71,22,2.24,US,1676234684
270,boyolangu,-8.1181,111.8935,23.05,92,100,0.5,ID,1676234685
271,praia,14.9215,-23.5087,21.3,73,75,8.23,CV,1676234685
272,taltal,-25.4,-70.4833,23.38,73,8,2.38,CL,1676234685
273,bereda,43.2686,-7.5406,3.0,78,98,0.69,ES,1676234686
274,jardim,-21.4803,-56.1381,25.73,76,99,2.12,BR,1676234686
275,tairua,-37.0167,175.85,18.25,96,100,13.74,NZ,1676234686
276,husavik,66.0449,-17.3389,0.62,74,100,4.95,IS,1676234687
277,yulara,-25.2406,130.9889,28.17,24,62,6.77,AU,1676234687
278,shangzhi,45.2167,127.9667,-18.37,100,88,1.52,CN,1676234687
279,kodinsk,58.6881,99.1844,-26.47,100,85,1.28,RU,1676234688
280,machinga,-15.1685,35.3,19.01,97,100,1.6,MW,1676234688
281,vestmannaeyjar,63.4427,-20.2734,8.28,88,100,15.41,IS,1676234689
282,primorsko-akhtarsk,46.0497,38.1747,-2.14,75,39,5.73,RU,1676234689
283,huarmey,-10.0681,-78.1522,23.06,85,100,2.92,PE,1676234689
284,usakos,-22.0,15.6,24.1,46,0,2.8,NA,1676234689
285,cartagena,10.3997,-75.5144,30.79,62,20,8.23,CO,1676234647
286,coahuayana,18.7333,-103.6833,31.94,34,0,3.82,MX,1676234690
287,slavyanka,42.8633,131.3847,-9.77,88,11,2.28,RU,1676234690
288,katherine,-14.4667,132.2667,23.18,100,100,1.03,AU,1676234691
289,laguna,38.421,-121.4238,20.56,44,0,5.14,US,1676234582
290,sitka,57.0531,-135.33,5.94,81,100,5.66,US,1676234691
291,rassvet,46.8333,40.75,-5.69,93,43,3.97,RU,1676234692
292,lazurne,46.084,32.5295,-0.32,68,36,9.15,UA,1676234692
293,manado,1.487,124.8455,23.43,94,20,0.51,ID,1676234693
294,lebu,-37.6167,-73.65,18.37,73,52,3.94,CL,1676234693
295,alice springs,-23.7,133.8833,21.75,40,0,2.57,AU,1676234693
296,ouesso,1.6136,16.0517,26.21,29,98,0.67,CG,1676234694
297,nueva loja,0.0847,-76.8828,28.01,74,75,2.06,EC,1676234694
298,solnechnyy,50.7214,136.6319,-22.73,91,30,1.71,RU,1676234694
299,naze,28.3667,129.4833,19.51,86,26,8.6,JP,1676234695
300,lazaro cardenas,17.9583,-102.2,29.5,50,0,5.62,MX,1676234695
301,luchegorsk,46.4764,134.2569,-23.21,100,99,1.41,RU,1676234696
302,yuancheng,36.652,107.7896,-3.32,65,100,6.03,CN,1676234696
303,chegdomyn,51.1167,133.0167,-27.98,100,96,0.34,RU,1676234696
304,cayenne,4.9333,-52.3333,26.02,89,75,3.6,GF,1676234697
305,longyearbyen,78.2186,15.6401,-5.09,68,75,6.69,SJ,1676234556
306,plouzane,48.3833,-4.6167,7.18,78,0,4.63,FR,1676234697
307,maanshan,31.6957,118.4983,7.03,90,100,6.17,CN,1676234697
308,talnakh,69.4865,88.3972,-12.96,93,100,6.25,RU,1676234698
309,hohhot,40.8106,111.6522,-9.84,52,0,2.0,CN,1676234698
310,sandy bay,-42.913,147.3532,12.94,72,75,3.6,AU,1676234698
311,chuy,-33.6971,-53.4616,28.66,53,0,6.9,UY,1676234699
312,katsuura,35.1333,140.3,12.01,94,100,3.35,JP,1676234699
313,ewa beach,21.3156,-158.0072,25.97,62,0,9.77,US,1676234699
314,chimbote,-9.0853,-78.5783,24.06,78,98,3.71,PE,1676234420
315,sao gabriel da cachoeira,-0.1303,-67.0892,27.82,89,73,0.41,BR,1676234700
316,yerbogachen,61.2767,108.0108,-20.44,100,62,2.2,RU,1676234700
317,port-gentil,-0.7193,8.7815,27.98,89,40,3.09,GA,1676234700
318,zhigansk,66.7697,123.3711,-40.51,98,25,3.96,RU,1676234701
319,kushiro,42.975,144.3747,-8.05,88,94,3.29,JP,1676234702
320,priargunsk,50.3691,119.1012,-32.08,100,49,0.42,RU,1676234702
321,severo-kurilsk,50.6789,156.125,-7.53,65,99,3.33,RU,1676234703
322,saurimo,-9.6608,20.3916,18.28,97,93,1.57,AO,1676234703
323,araguacu,-12.9306,-49.8264,28.61,74,54,1.13,BR,1676234705
324,brae,60.3964,-1.353,8.16,82,100,9.72,GB,1676234705
325,vila,42.0304,-8.1588,7.49,68,98,1.81,PT,1676234706
326,surgut,61.25,73.4167,-14.9,78,40,4.0,RU,1676234418
327,sao miguel do araguaia,-13.275,-50.1628,28.93,70,76,1.97,BR,1676234706
328,rameswaram,9.2833,79.3,25.29,67,6,6.43,IN,1676234707
329,hualmay,-11.0964,-77.6139,23.66,80,100,3.58,PE,1676234707
330,usinsk,65.9939,57.5281,-12.05,95,98,7.06,RU,1676234708
331,luganville,-15.5333,167.1667,26.85,84,100,2.12,VU,1676234708
332,kralendijk,12.15,-68.2667,26.99,78,75,7.72,BQ,1676234709
333,alappuzha,9.49,76.3264,23.26,85,30,2.46,IN,1676234709
334,zabid,14.1951,43.3152,24.84,52,1,2.21,YE,1676234709
335,luderitz,-26.6481,15.1594,17.67,90,0,2.61,NA,1676234710
336,saint anthony,45.0205,-93.218,4.97,61,0,3.6,US,1676234710
337,pisco,-13.7,-76.2167,27.03,69,75,3.09,PE,1676234710
338,faya,18.3851,42.4509,14.29,38,0,1.2,SA,1676234711
339,kasama,-10.2129,31.1808,17.19,93,100,1.06,ZM,1676234711
340,eureka,40.8021,-124.1637,14.55,75,6,2.68,US,1676234712
341,peleduy,59.6289,112.7406,-12.69,94,100,4.15,RU,1676234712
342,sirjan,29.452,55.6814,10.56,52,100,6.14,IR,1676234713
343,tura,25.5198,90.2201,14.73,44,0,0.53,IN,1676234713
344,yinchuan,38.4681,106.2731,-4.85,40,100,3.56,CN,1676234714
345,sadiqabad,28.3062,70.1307,13.53,13,4,3.43,PK,1676234676
346,poum,-20.2333,164.0167,25.63,62,49,6.08,NC,1676234714
347,saryagash,41.4511,69.1701,-1.02,44,100,2.04,KZ,1676234715
348,bridgewater,44.3835,-64.5155,8.79,52,43,6.17,CA,1676234715
349,awbari,26.5921,12.7805,11.13,27,47,2.8,LY,1676234716
350,agutaya,11.148,120.9417,26.24,81,23,10.73,PH,1676234717
351,airai,-8.9266,125.4092,15.09,95,99,1.38,TL,1676234717
352,bonavista,48.6499,-53.1147,-5.15,70,100,7.11,CA,1676234718
353,karatau,43.1667,70.4667,-8.31,86,88,0.03,KZ,1676234718
354,saint-pierre,-21.3393,55.4781,24.82,73,0,3.6,RE,1676234718
355,kupang,-10.1667,123.5833,25.57,89,100,4.21,ID,1676234719
356,ginda,30.6945,78.4932,2.76,30,0,2.52,IN,1676234719
357,sur,22.5667,59.5289,21.0,61,0,2.66,OM,1676234720
358,chicla,-11.705,-76.2686,8.35,89,100,0.68,PE,1676234720
359,port lincoln,-34.7333,135.8667,14.73,74,13,4.66,AU,1676234720
360,kahului,20.8947,-156.47,23.01,83,40,7.72,US,1676234539
361,torbay,47.6666,-52.7314,-4.68,78,75,10.8,CA,1676234721
362,baykit,61.67,96.37,-26.77,100,91,0.75,RU,1676234721
363,russell,32.3502,-85.1999,8.53,76,100,8.75,US,1676234722
364,pervomayskiy,53.2485,40.2871,-8.51,92,100,7.76,RU,1676234722
365,nusaybin,37.0778,41.2178,2.35,52,0,3.48,TR,1676234723
366,haysville,37.5645,-97.3523,16.75,28,75,8.75,US,1676234723
367,big spring,32.2504,-101.4787,19.02,16,0,3.6,US,1676234672
368,ostrovnoy,68.0531,39.5131,-4.29,91,100,11.45,RU,1676234723
369,angoche,-16.2325,39.9086,23.95,88,100,5.88,MZ,1676234724
370,vila velha,-20.3297,-40.2925,28.97,78,20,7.2,BR,1676234724
371,salamiyah,35.0113,37.0532,4.36,76,2,0.69,SY,1676234724
372,juruti,-2.1522,-56.0922,29.87,66,78,1.25,BR,1676234725
373,abaran,38.2055,-1.3991,9.3,87,23,1.44,ES,1676234725
374,qui nhon,13.7667,109.2333,23.13,91,98,2.08,VN,1676234602
375,tautira,-17.7333,-149.15,26.94,79,43,4.39,PF,1676234726
376,chara,56.9064,118.2631,-20.84,77,11,1.98,RU,1676234726
377,yarada,17.65,83.2667,24.18,100,0,1.03,IN,1676234726
378,morondava,-20.2833,44.2833,26.67,81,100,5.24,MG,1676234727
379,hermiston,45.8404,-119.2895,13.23,60,0,0.89,US,1676234605
380,fort myers beach,26.452,-81.9481,23.03,63,20,11.83,US,1676234727
381,lahat,-3.8,103.5333,22.08,78,100,0.96,ID,1676234600
382,shimoda,34.6667,138.95,10.61,81,100,5.3,JP,1676234727
383,kropotkin,45.4375,40.5756,-1.24,96,100,5.76,RU,1676234728
384,santa maria,-29.6842,-53.8069,36.61,28,0,3.09,BR,1676234728
385,katobu,-4.9408,122.5276,24.34,92,100,2.6,ID,1676234729
386,rio gallegos,-51.6226,-69.2181,14.03,33,75,7.2,AR,1676234505
387,jiamusi,46.8333,130.35,-21.57,99,35,1.88,CN,1676234729
388,cherskiy,68.75,161.3,-42.54,100,87,1.53,RU,1676234730
389,clyde river,70.4692,-68.5914,-37.87,67,0,1.54,CA,1676234730
390,lamu,-2.2717,40.902,26.12,81,5,6.76,KE,1676234731
391,tuatapere,-46.1333,167.6833,16.96,70,64,0.17,NZ,1676234731
392,kenai,60.5544,-151.2583,-2.7,80,100,7.2,US,1676234574
393,portree,57.4129,-6.1942,8.07,85,99,5.43,GB,1676234732
394,bathsheba,13.2167,-59.5167,28.34,47,20,10.8,BB,1676234732
395,pangai,-19.8,-174.35,27.06,83,75,3.09,TO,1676234733
396,taoudenni,22.6783,-3.9836,24.43,22,86,10.11,ML,1676234733
397,imbituba,-28.24,-48.6703,26.05,75,0,3.86,BR,1676234733
398,reforma,18.1,-91.0167,20.97,66,100,0.6,MX,1676234560
399,toora-khem,52.4675,96.11,-27.88,100,98,0.51,RU,1676234734
400,halifax,44.6453,-63.5724,6.0,52,30,6.17,CA,1676234482
401,beroroha,-21.6667,45.1667,24.25,86,100,1.88,MG,1676234734
402,tukrah,32.5341,20.5791,12.66,64,99,4.0,LY,1676234735
403,champerico,14.3,-91.9167,35.3,61,1,5.51,GT,1676234736
404,verkhnyaya inta,65.9811,60.3094,-7.91,84,100,8.34,RU,1676234736
405,capitan bado,-23.2667,-55.5333,26.16,78,5,2.23,PY,1676234737
406,bocana de paiwas,12.7857,-85.1227,30.84,40,1,8.76,NI,1676234737
407,meulaboh,4.1363,96.1285,24.36,89,100,2.59,ID,1676234739
408,bardiyah,31.7561,25.0865,12.33,63,95,4.22,LY,1676234740
409,kyra,49.5776,111.9753,-21.11,91,5,1.9,RU,1676234740
410,ocumare del tuy,10.1165,-66.7761,29.22,54,53,2.86,VE,1676234741
411,kindu,-2.95,25.95,22.1,96,100,1.74,CD,1676234741
412,mina,26.0011,-100.5299,18.45,20,82,5.16,MX,1676234742
413,kloulklubed,7.0419,134.2556,25.28,79,86,5.51,PW,1676234742
414,zverinogolovskoye,54.4586,64.8542,-20.74,100,96,2.91,RU,1676234742
415,yeppoon,-23.1333,150.7333,24.88,81,0,1.1,AU,1676234744
416,strezhevoy,60.7333,77.5889,-18.19,97,61,3.57,RU,1676234744
417,porto seguro,-16.4497,-39.0647,29.29,70,40,4.12,BR,1676234745
418,belaya gora,68.5333,146.4167,-35.0,98,100,1.67,RU,1676234745
419,urumqi,43.801,87.6005,-9.47,86,26,1.0,CN,1676234678
420,antofagasta,-23.65,-70.4,24.6,70,5,3.51,CL,1676234516
421,iberia,29.9502,-91.7507,18.36,23,0,3.09,US,1676234746
422,verin,41.9415,-7.4381,6.55,71,76,1.93,ES,1676234743
423,leningradskiy,69.3833,178.4167,-27.49,94,100,4.45,RU,1676234747
424,rozkishne,48.5074,39.3004,-4.79,89,100,6.42,UA,1676234747
425,el silencio,10.5,-66.9167,26.47,65,20,2.06,VE,1676234748
426,san quintin,30.4833,-115.95,13.57,62,96,4.96,MX,1676234748
427,harur,12.0667,78.5,18.28,61,11,0.55,IN,1676234748
428,kolokani,13.5728,-8.0339,27.92,10,82,4.15,ML,1676234749
429,nemuro,43.3236,145.575,-4.1,84,83,4.5,JP,1676234751
430,honningsvag,70.9821,25.9704,1.86,80,75,11.83,NO,1676234751
431,leshukonskoye,64.8989,45.7622,-12.85,95,99,3.97,RU,1676234752
432,asau,46.4333,26.4,-2.49,93,48,2.06,RO,1676234753
433,robertson,36.5167,-86.8667,14.21,37,1,5.11,US,1676234753
434,maumere,-8.6199,122.2111,25.97,80,98,0.5,ID,1676234753
435,desdunes,19.2955,-72.646,27.67,59,3,4.9,HT,1676234754
436,atascadero,35.4894,-120.6707,15.38,59,6,2.24,US,1676234755
437,dingle,10.9995,122.6711,22.34,93,63,3.35,PH,1676234755
438,laela,-8.5667,32.05,15.73,92,93,1.23,TZ,1676234755
439,chaman,30.9236,66.4512,7.73,27,47,1.15,PK,1676234756
440,vestmanna,62.1564,-7.1664,7.51,93,100,5.66,FO,1676234756
441,omsukchan,62.5333,155.8,-32.37,100,100,1.59,RU,1676234757
442,timizart,36.8,4.2667,7.08,85,4,2.97,DZ,1676234757
443,villanueva de cordoba,38.3228,-4.6287,5.25,79,23,1.43,ES,1676234757
444,farah,32.5,62.5,8.17,35,100,0.97,AF,1676234758
445,bara,10.3744,10.7288,25.81,16,5,5.91,NG,1676234758
446,tonantins,-2.8731,-67.8022,27.71,90,79,0.21,BR,1676234759
447,northam,51.0333,-4.2167,6.88,90,8,6.46,GB,1676234760
448,safranbolu,41.2508,32.6942,-3.53,92,73,0.83,TR,1676234760
449,bowen,-20.0167,148.2333,25.25,75,7,2.18,AU,1676234760
450,valdivia,-39.8142,-73.2459,16.05,97,100,0.88,CL,1676234761
451,ballina,-28.8667,153.5667,23.77,99,77,2.28,AU,1676234761
452,pochutla,15.7432,-96.4661,29.9,41,0,3.46,MX,1676234762
453,rudnogorsk,57.2639,103.7519,-27.15,100,41,0.92,RU,1676234762
454,salinas,36.6777,-121.6555,17.77,56,0,3.09,US,1676234750
455,serov,59.6033,60.5787,-9.3,92,100,3.57,RU,1676234763
456,sajanan,37.0573,9.2426,4.51,78,8,0.48,TN,1676234764
457,coruripe,-10.1256,-36.1756,26.53,71,74,5.28,BR,1676234764
458,taybad,34.74,60.7756,5.62,45,74,5.41,IR,1676234764
459,kuandian,40.7286,124.7847,-7.64,83,21,2.67,CN,1676234765
460,wewak,-3.5534,143.6268,24.87,89,100,2.18,PG,1676234766
461,santa ana,33.7456,-117.8678,17.24,52,40,4.12,US,1676234703
462,bloemfontein,-29.1211,26.214,19.71,83,30,1.54,ZA,1676234584
463,hamilton,39.1834,-84.5333,13.57,20,0,5.14,US,1676234728
464,zhangye,38.9342,100.4517,-4.8,85,100,2.61,CN,1676234766
465,spring hill,28.4769,-82.5255,18.46,73,100,11.32,US,1676234632
466,lorengau,-2.0226,147.2712,27.27,82,100,3.61,PG,1676234767
467,ahtopol,42.1,27.95,3.94,71,99,7.97,BG,1676234767
468,zhuhai,22.2769,113.5678,22.84,88,40,5.14,CN,1676234768
469,qaqortoq,60.7167,-46.0333,-13.86,71,100,1.05,GL,1676234768
470,atambua,-9.1061,124.8925,22.97,91,97,1.97,ID,1676234769
471,mayakonda,14.2833,76.0833,22.04,32,19,3.65,IN,1676234769
472,bikaner,28.0167,73.3,13.78,11,0,3.77,IN,1676234770
473,mirnyy,62.5353,113.9611,-22.66,100,100,1.31,RU,1676234515
474,floro,61.5996,5.0328,8.31,87,75,9.77,NO,1676234770
475,hearst,49.6835,-83.6665,-3.86,93,100,2.23,CA,1676234522
476,pajapan,18.25,-94.7,16.09,70,94,3.75,MX,1676234771
477,batagay,67.6333,134.6333,-49.83,99,71,0.66,RU,1676234771
478,viedma,-40.8135,-62.9967,30.06,24,16,6.19,AR,1676234485
479,holme,56.1138,10.1725,7.76,87,28,5.67,DK,1676234772
480,gornopravdinsk,60.05,69.9,-15.31,96,99,3.6,RU,1676234772
481,whitehorse,60.7161,-135.0538,-2.57,86,75,4.63,CA,1676234772
482,steamboat springs,40.485,-106.8317,5.0,57,0,0.89,US,1676234773
483,oytal,42.9057,73.2697,-7.93,71,35,2.71,KZ,1676234774
484,magadan,59.5667,150.8,-19.67,97,56,3.34,RU,1676234774
485,pombas,17.1503,-25.0201,19.88,73,100,5.05,CV,1676234775
486,inhambane,-23.865,35.3833,26.09,88,97,5.9,MZ,1676234776
487,kongolo,-5.3833,27.0,20.82,96,99,0.15,CD,1676234778
488,hamada,34.8833,132.0833,9.66,95,100,5.5,JP,1676234778
489,hata,26.7461,83.7403,14.77,25,0,5.7,IN,1676234779
490,laizhou,37.1717,119.9214,-0.89,61,100,9.71,CN,1676234779
491,corpus christi,27.8006,-97.3964,20.09,51,75,5.66,US,1676234728
492,sokolo,14.7328,-6.1219,30.69,9,27,4.08,ML,1676234780
493,lubango,-14.9172,13.4925,17.6,66,27,1.19,AO,1676234781
494,puerto escondido,15.85,-97.0667,28.46,65,20,2.06,MX,1676234781
495,salekhard,66.53,66.6019,-15.11,94,27,4.83,RU,1676234782
496,nicoya,10.1483,-85.452,32.34,38,7,9.67,CR,1676234783
497,amga,60.8953,131.9608,-27.02,99,100,1.18,RU,1676234784
498,hua hin,12.5707,99.9588,24.12,78,44,2.51,TH,1676234785
499,hanna,51.6334,-111.9018,-1.75,78,61,3.13,CA,1676234785
500,benghazi,32.1167,20.0667,13.61,61,98,4.72,LY,1676234786
501,kalabo,-14.97,22.6814,23.11,63,99,1.81,ZM,1676234786
502,la union,-5.4,-80.75,30.55,48,43,8.33,PE,1676234787
503,houma,29.5958,-90.7195,17.78,37,1,4.53,US,1676234739
504,rudbar,30.15,62.6,12.67,26,75,2.64,AF,1676234789
505,kalanguy,51.0167,116.5167,-25.15,100,68,1.17,RU,1676234789
506,pierre,44.3683,-100.351,9.51,46,0,4.12,US,1676234706
507,portobelo,9.55,-79.65,25.06,82,24,7.5,PA,1676234789
508,nouadhibou,20.931,-17.0347,17.99,88,100,6.17,MR,1676234790
509,aquiraz,-3.9014,-38.3911,29.05,80,80,4.28,BR,1676234790
510,malumfashi,11.7853,7.6218,21.73,15,1,4.32,NG,1676234791
511,pangody,65.85,74.4859,-12.66,93,100,7.71,RU,1676234791
512,middleton,53.55,-2.2,6.9,84,0,1.68,GB,1676234728
513,la ronge,55.1001,-105.2842,0.14,64,75,4.63,CA,1676234792
514,kichera,55.9375,110.0997,-17.46,95,99,1.06,RU,1676234792
515,estreito,-5.7833,-43.25,28.83,57,100,1.66,BR,1676234792
516,maragogi,-9.0122,-35.2225,26.51,79,100,4.45,BR,1676234793
517,tsumeb,-19.2333,17.7167,25.33,30,34,3.17,NA,1676234793
518,medicine hat,50.0501,-110.6683,7.34,56,100,5.66,CA,1676234581
519,vilhena,-12.7406,-60.1458,31.12,51,40,3.6,BR,1676234794
520,kamenka,51.3223,42.7678,-6.63,97,98,2.31,RU,1676234794
521,pismo beach,35.1428,-120.6413,17.56,51,0,4.12,US,1676234795
522,norton,-17.8833,30.7,18.49,90,100,1.32,ZW,1676234796
523,ambon,-3.6954,128.1814,27.08,83,40,2.06,ID,1676234797
524,zambezi,-13.5432,23.1047,20.19,76,91,2.08,ZM,1676234798
525,sao felix do xingu,-6.6447,-51.995,25.71,94,38,1.31,BR,1676234798
526,fort nelson,58.8053,-122.7002,-3.36,75,100,0.89,CA,1676234548
527,gboko,7.3179,8.9951,29.93,11,73,1.6,NG,1676234798
528,baiyin,36.5583,104.2081,-6.82,83,100,5.08,CN,1676234799
529,reshetylivka,49.565,34.0782,-5.09,86,59,6.29,UA,1676234799
530,juneau,58.3019,-134.4197,4.56,97,100,4.63,US,1676234681
531,bukachacha,52.9833,116.9167,-23.39,97,16,1.35,RU,1676234800
532,mago,53.2514,140.1822,-30.11,100,91,0.84,RU,1676234801
533,westport,41.1415,-73.3579,8.66,47,0,0.45,US,1676234730
534,agadez,19.75,10.25,19.87,26,0,3.98,NE,1676234801
535,petersburg,37.2279,-77.4019,4.38,94,100,4.12,US,1676234601
536,sao joao da barra,-21.6403,-41.0511,27.05,89,100,5.09,BR,1676234801
537,monster,52.0258,4.175,7.99,78,100,1.54,NL,1676234802
538,camacari,-12.6975,-38.3242,29.87,73,27,3.6,BR,1676234803
539,altus,34.6381,-99.334,21.04,20,0,9.77,US,1676234804
540,vasai,19.47,72.8,28.05,31,6,3.97,IN,1676234804
541,walvis bay,-22.9575,14.5053,19.53,77,0,3.6,NA,1676234804
542,celestun,20.8667,-90.4,22.02,56,3,5.99,MX,1676234805
543,portland,45.5234,-122.6762,12.87,73,75,2.68,US,1676234742
544,kudahuvadhoo,2.6708,72.8944,26.49,68,1,5.48,MV,1676234805
545,port blair,11.6667,92.75,23.02,88,88,0.51,IN,1676234806
546,port-cartier,50.0334,-66.8654,-1.88,70,24,5.48,CA,1676234806
547,bairiki,1.3292,172.9752,26.0,94,100,8.75,KI,1676234806
548,mount pleasant,32.7941,-79.8626,11.12,91,75,6.17,US,1676234634
549,amuntai,-2.4177,115.2494,22.54,99,100,0.21,ID,1676234807
550,vanavara,60.34,102.2797,-23.82,100,21,1.71,RU,1676234807
551,sheksna,59.21,38.5107,-9.02,100,97,2.79,RU,1676234808
552,fochville,-26.4886,27.4939,19.37,67,71,2.45,ZA,1676234808
553,mackay,-21.15,149.2,23.16,82,41,4.1,AU,1676234808
554,cockburn town,21.4612,-71.1419,25.06,77,0,7.57,TC,1676234690
555,waipawa,-41.4122,175.5153,16.32,77,93,6.41,NZ,1676234809
556,loding,67.3,14.75,4.95,70,75,18.01,NO,1676234809
557,natal,-5.795,-35.2094,29.36,74,20,7.2,BR,1676234667
558,santiago del estero,-27.7951,-64.2615,41.7,18,0,6.65,AR,1676234810
559,cabo san lucas,22.8909,-109.9124,29.61,22,75,6.69,MX,1676234516
560,dargaville,-35.9333,173.8833,18.16,95,100,9.82,NZ,1676234810
561,sturgeon falls,46.3646,-79.9326,2.98,99,100,1.28,CA,1676234810
562,kangaatsiaq,68.3065,-53.4641,-30.39,96,26,3.17,GL,1676234811
563,ampanihy,-24.7,44.75,24.69,80,69,1.67,MG,1676234811
564,aleksandrovskoye,44.7142,43.0008,-1.29,91,100,1.46,RU,1676234812
565,dordrecht,51.81,4.6736,8.07,83,0,0.89,NL,1676234812
566,bosaso,11.2842,49.1816,22.96,75,0,1.98,SO,1676234812
567,hobyo,5.3505,48.5268,24.65,73,42,7.95,SO,1676234813
568,ponta delgada,37.7333,-25.6667,15.4,82,20,4.63,PT,1676234813
569,opuwo,-18.0607,13.84,23.86,35,80,3.84,NA,1676234814
