City_ID,City,Lat,Lng,Max Temp,Humidity,Cloudiness,Wind Speed,Country,Date
0,husavik,66.0449,-17.3389,-3.94,58,80,7.0,IS,1675791233
1,pevek,69.7008,170.3133,-30.54,96,100,1.29,RU,1675791248
2,bluff,-46.6,168.3333,10.45,73,86,10.97,NZ,1675791070
3,jamestown,42.097,-79.2353,8.34,50,75,6.17,US,1675791096
4,lazaro cardenas,17.9583,-102.2,28.65,54,26,2.87,MX,1675791255
5,carnarvon,-24.8667,113.6333,24.76,71,4,9.59,AU,1675791257
6,cape town,-33.9258,18.4232,23.39,77,20,10.8,ZA,1675791024
7,maun,-19.9833,23.4167,29.98,51,0,1.54,BW,1675791260
8,alyangula,-13.8483,136.4192,28.09,70,95,2.39,AU,1675791082
9,mar del plata,-38.0023,-57.5575,27.13,76,40,6.26,AR,1675791175
10,mahebourg,-20.4081,57.7,27.36,78,75,5.14,MU,1675791266
11,cabo san lucas,22.8909,-109.9124,24.47,62,40,2.06,MX,1675791246
12,batemans bay,-35.7167,150.1833,19.5,92,100,1.9,AU,1675791269
13,faanui,-16.4833,-151.75,26.68,78,26,5.55,PF,1675791273
14,ilulissat,69.2167,-51.1,-22.99,70,75,2.57,GL,1675791169
15,bongaree,-27.0797,153.1586,25.03,66,91,5.86,AU,1675791274
16,rikitea,-23.1203,-134.9692,26.07,74,52,5.49,PF,1675791274
17,hilo,19.7297,-155.09,22.57,89,75,3.09,US,1675791073
18,ushuaia,-54.8,-68.3,12.81,50,40,5.66,AR,1675791061
19,albany,42.6001,-73.9662,3.36,46,63,2.24,US,1675791015
20,guerrero negro,27.9769,-114.0611,18.22,25,5,1.9,MX,1675791275
21,yellowknife,62.456,-114.3525,-18.71,78,100,3.6,CA,1675791276
22,upernavik,72.7868,-56.1549,-26.35,95,99,3.02,GL,1675791277
23,havoysund,70.9963,24.6622,3.13,67,64,16.61,NO,1675791277
24,ponta do sol,32.6667,-17.1,17.62,63,42,2.78,PT,1675791278
25,kaili,-3.4626,120.2147,19.51,86,100,1.72,ID,1675791278
26,paulo afonso,-9.4061,-38.2147,33.16,27,40,4.63,BR,1675791279
27,lebu,-37.6167,-73.65,18.52,64,0,8.23,CL,1675791187
28,longyearbyen,78.2186,15.6401,-4.09,74,75,19.03,SJ,1675791279
29,minudasht,37.2289,55.3747,11.76,66,75,4.12,IR,1675791279
30,nikolskoye,59.7035,30.7861,-2.06,91,90,4.03,RU,1675791280
31,sabang,5.8933,95.3214,26.59,78,65,3.57,ID,1675791280
32,barrow,71.2906,-156.7887,-23.99,77,100,4.63,US,1675791280
33,airai,-8.9266,125.4092,16.25,94,79,0.82,TL,1675791281
34,atuona,-9.8,-139.0333,25.88,77,5,7.36,PF,1675791281
35,shache,38.4167,77.2406,-0.7,64,0,1.92,CN,1675791281
36,tuktoyaktuk,69.4541,-133.0374,-34.0,68,100,1.54,CA,1675791282
37,salym,60.0625,71.4789,-26.98,100,73,1.7,RU,1675791282
38,shitanjing,39.2342,106.3439,-2.78,48,52,3.33,CN,1675791283
39,kovdor,67.5662,30.4758,-0.03,71,100,5.52,RU,1675791283
40,kampene,-3.6,26.6667,20.51,90,89,0.94,CD,1675791283
41,aykhal,66.0,111.5,-37.27,100,99,1.71,RU,1675791050
42,ponnani,10.767,75.9252,25.62,83,13,0.56,IN,1675791284
43,sisimiut,66.9395,-53.6735,-19.59,94,100,2.93,GL,1675791285
44,nasirabad,26.3,74.7333,17.22,31,0,1.41,IN,1675791285
45,vao,-22.6667,167.4833,26.0,70,83,5.18,NC,1675791054
46,paita,-5.0892,-81.1144,28.07,61,13,5.77,PE,1675791285
47,dakar,14.6937,-17.4441,24.49,69,72,9.35,SN,1675791074
48,faya,18.3851,42.4509,16.06,76,38,2.41,SA,1675791286
49,thompson,55.7435,-97.8558,-21.91,71,40,1.54,CA,1675791286
50,kavaratti,10.5669,72.642,26.87,69,95,4.38,IN,1675791287
51,quelimane,-17.8786,36.8883,27.97,83,75,2.57,MZ,1675790992
52,alta floresta,-9.8756,-56.0861,31.9,62,75,3.6,BR,1675791287
53,bandar-e lengeh,26.5579,54.8807,20.06,68,23,2.06,IR,1675791287
54,rawson,-43.3002,-65.1023,27.15,32,41,4.32,AR,1675791288
55,provideniya,64.3833,-173.3,-26.63,93,71,1.36,RU,1675791288
56,puerto ayora,-0.7393,-90.3518,29.98,88,30,4.02,EC,1675791254
57,bengkulu,-3.8004,102.2655,24.52,86,96,3.33,ID,1675791288
58,dikson,73.5069,80.5464,-26.87,95,85,7.34,RU,1675791289
59,hamilton,39.1834,-84.5333,14.97,54,100,6.17,US,1675791262
60,yumen,40.2833,97.2,-2.43,51,100,1.53,CN,1675790991
61,port elizabeth,-33.918,25.5701,22.4,91,20,5.14,ZA,1675791289
62,tashtyp,52.7939,89.8983,-10.07,97,100,1.22,RU,1675791290
63,alofi,-19.0595,-169.9187,23.94,100,100,2.06,NU,1675791290
64,hobart,-42.8794,147.3294,13.92,58,100,2.57,AU,1675791248
65,codrington,-38.2667,141.9667,12.22,88,63,3.78,AU,1675791291
66,chuy,-33.6971,-53.4616,29.33,43,2,4.92,UY,1675791291
67,ocos,14.5094,-92.1933,32.1,59,19,4.41,GT,1675791291
68,wajima,37.4,136.9,7.03,68,100,6.39,JP,1675791292
69,busselton,-33.65,115.3333,16.07,93,1,4.85,AU,1675791292
70,punta arenas,-53.15,-70.9167,15.06,51,40,4.12,CL,1675791151
71,pitimbu,-7.4706,-34.8086,31.33,59,100,6.71,BR,1675791292
72,brasilia,-15.7797,-47.9297,28.68,37,40,3.09,BR,1675791134
73,kapaa,22.0752,-159.319,23.18,93,75,5.66,US,1675791293
74,port hawkesbury,45.6169,-61.3485,-0.54,56,0,5.66,CA,1675791293
75,butaritari,3.0707,172.7902,27.29,79,100,10.42,KI,1675791194
76,vila velha,-20.3297,-40.2925,30.97,73,20,7.72,BR,1675791294
77,colesberg,-30.72,25.0972,19.4,72,100,4.67,ZA,1675791294
78,ivaipora,-24.2478,-51.6847,28.41,40,49,1.59,BR,1675791294
79,brae,60.3964,-1.353,6.55,72,19,10.64,GB,1675791295
80,urucurituba,-2.6833,-57.6667,28.0,82,72,1.08,BR,1675791295
81,hithadhoo,-0.6,73.0833,27.66,68,100,4.07,MV,1675791295
82,almaznyy,48.0448,40.045,-8.11,86,99,8.57,RU,1675791296
83,avarua,-21.2078,-159.775,26.03,89,75,2.06,CK,1675791288
84,san felipe,10.3399,-68.7425,27.41,67,90,3.7,VE,1675791296
85,maracas,-13.4411,-40.4308,29.78,30,5,1.97,BR,1675791219
86,kijang,35.2442,129.2139,2.85,77,12,2.13,KR,1675791297
87,dukat,62.55,155.55,-40.16,100,98,1.89,RU,1675791297
88,tokomaru,-40.4667,175.5,18.35,90,90,2.92,NZ,1675791297
89,buritizeiro,-17.3511,-44.9622,32.39,45,46,0.45,BR,1675791222
90,pudem,58.3044,52.1675,-20.06,100,86,1.54,RU,1675791298
91,tsabong,-26.0217,22.401,24.82,55,99,3.05,BW,1675791298
92,east london,-33.0153,27.9116,22.52,94,20,5.66,ZA,1675791297
93,fort nelson,58.8053,-122.7002,-13.92,90,20,1.03,CA,1675791048
94,mataura,-46.1927,168.8643,10.27,84,83,2.44,NZ,1675791299
95,georgetown,5.4112,100.3354,23.7,87,95,3.26,MY,1675791131
96,narsaq,60.9167,-46.05,-18.88,65,78,2.53,GL,1675791299
97,hermanus,-34.4187,19.2345,21.56,76,100,6.07,ZA,1675791299
98,pitea,65.3172,21.4794,4.05,82,100,2.42,SE,1675791300
99,atherton,53.5237,-2.4935,8.27,78,98,0.45,GB,1675791300
100,weiser,44.251,-116.9693,4.92,91,94,0.7,US,1675791300
101,mamlyutka,54.9375,68.5394,-13.36,96,100,2.34,KZ,1675791301
102,ustye,59.6304,39.736,-9.61,95,98,3.47,RU,1675791301
103,north bend,43.4065,-124.2243,10.04,87,100,4.63,US,1675791305
104,new norfolk,-42.7826,147.0587,13.72,60,39,1.09,AU,1675791192
105,san antonio,29.4241,-98.4936,22.15,84,100,5.66,US,1675791007
106,mutoko,-17.397,32.2268,19.32,73,59,1.16,ZW,1675791308
107,cabedelo,-6.9811,-34.8339,31.37,62,91,7.35,BR,1675791309
108,lavrentiya,65.5833,-171.0,-25.22,92,100,1.44,RU,1675791310
109,barreirinhas,-2.7469,-42.8264,28.82,70,100,4.08,BR,1675791311
110,bredasdorp,-34.5322,20.0403,20.75,71,100,4.3,ZA,1675791312
111,pangnirtung,66.1451,-65.7125,-33.0,68,20,0.0,CA,1675791314
112,cherskiy,68.75,161.3,-35.85,98,100,2.31,RU,1675791315
113,gracias,14.5833,-88.5833,25.81,40,62,2.29,HN,1675791315
114,curuca,-0.7289,-47.8481,26.38,91,59,2.92,BR,1675791317
115,ancud,-41.8697,-73.8203,17.84,70,3,3.78,CL,1675791318
116,noumea,-22.2763,166.4572,22.99,82,88,3.57,NC,1675791322
117,kruisfontein,-34.0033,24.7314,19.75,78,99,3.56,ZA,1675791323
118,dumbea,-22.15,166.45,22.98,88,96,2.53,NC,1675791324
119,ayagoz,47.9714,80.4392,-6.2,93,100,3.99,KZ,1675791328
120,chokurdakh,70.6333,147.9167,-39.13,100,99,1.52,RU,1675791330
121,cidreira,-30.1811,-50.2056,26.44,62,2,4.69,BR,1675791332
122,mount isa,-20.7333,139.5,25.87,83,76,2.06,AU,1675791174
123,bambanglipuro,-7.95,110.2833,23.98,92,100,1.76,ID,1675791333
124,taperoa,-7.2075,-36.8267,33.34,21,68,5.67,BR,1675791333
125,clyde river,70.4692,-68.5914,-32.87,68,75,1.03,CA,1675791275
126,porto novo,6.4965,2.6036,29.9,77,99,4.46,BJ,1675791334
127,butajira,8.1167,38.3667,16.85,27,16,3.94,ET,1675791334
128,kathu,7.9178,98.3332,26.9,76,95,4.3,TH,1675791334
129,shenjiamen,29.9576,122.298,8.23,78,73,5.57,CN,1675791335
130,vaini,-21.2,-175.2,24.09,100,75,0.51,TO,1675791044
131,ribeira grande,38.5167,-28.7,14.22,54,75,8.23,PT,1675791135
132,namibe,-15.1961,12.1522,22.49,73,100,4.6,AO,1675791050
133,torbay,47.6666,-52.7314,-4.68,83,100,8.94,CA,1675791049
134,lata,40.1629,-8.3327,8.11,63,4,0.51,PT,1675791338
135,mayor pablo lagerenza,-19.9309,-60.7718,25.88,78,99,2.72,PY,1675791338
136,kahului,20.8947,-156.47,23.8,86,20,5.81,US,1675791339
137,cayenne,4.9333,-52.3333,30.02,66,75,7.2,GF,1675791149
138,nanortalik,60.1432,-45.2371,-12.07,59,7,13.23,GL,1675791340
139,ormara,25.2088,64.6357,22.09,65,1,4.24,PK,1675791341
140,norman wells,65.282,-126.8329,-23.98,77,100,0.0,CA,1675791341
141,pandan,14.0453,124.1694,24.99,86,100,3.89,PH,1675791342
142,sitka,57.0531,-135.33,-0.06,86,40,1.54,US,1675791342
143,rio gallegos,-51.6226,-69.2181,20.03,42,40,0.93,AR,1675791057
144,broome,42.2506,-75.833,4.7,64,0,5.36,US,1675791343
145,poum,-20.2333,164.0167,26.4,85,100,2.74,NC,1675791343
146,hovd,48.0056,91.6419,-17.1,81,13,1.03,MN,1675791344
147,te anau,-45.4167,167.7167,8.47,87,89,2.21,NZ,1675791160
148,arraial do cabo,-22.9661,-42.0278,30.98,70,40,3.6,BR,1675791345
149,ribeira brava,32.65,-17.0667,17.62,66,38,1.94,PT,1675791345
150,baykit,61.67,96.37,-17.09,99,100,0.8,RU,1675791088
151,port alfred,-33.5906,26.891,22.32,89,88,1.34,ZA,1675791346
152,san ignacio,17.1561,-89.0714,27.08,74,20,3.09,BZ,1675791347
153,tuatapere,-46.1333,167.6833,10.14,86,89,5.02,NZ,1675791048
154,salalah,17.0151,54.0924,25.05,57,0,1.54,OM,1675791347
155,santa cruz cabralia,-16.2781,-39.0247,30.13,70,40,8.23,BR,1675791348
156,opuwo,-18.0607,13.84,25.18,40,95,6.86,NA,1675791348
157,richards bay,-28.783,32.0377,25.27,86,28,4.27,ZA,1675791349
158,henties bay,-22.116,14.2845,19.3,83,50,2.06,NA,1675791349
159,qaanaaq,77.484,-69.3632,-30.12,67,98,2.99,GL,1675791235
160,gaggenau,48.8,8.3333,2.34,60,0,4.63,DE,1675791350
161,santa rosa,14.3122,121.1114,26.16,82,66,3.48,PH,1675791054
162,kaitangata,-46.2817,169.8464,12.75,57,26,5.04,NZ,1675791078
163,mandera,3.9366,41.867,31.03,25,17,4.0,KE,1675791350
164,bonavista,48.6499,-53.1147,-4.46,62,100,8.6,CA,1675791085
165,beringovskiy,63.05,179.3167,-28.43,96,100,3.48,RU,1675791351
166,yushu,44.8,126.5333,-17.91,95,25,2.6,CN,1675791351
167,eydhafushi,5.1033,73.0708,27.09,71,82,4.0,MV,1675791163
168,hvide sande,56.0045,8.1294,4.49,92,88,6.34,DK,1675791352
169,umm kaddadah,13.6017,26.6876,20.63,20,12,7.09,SD,1675791352
170,kuroishi,40.6389,140.5922,-1.9,95,99,0.2,JP,1675791352
171,kautokeino,69.0125,23.0412,-2.55,73,23,9.17,NO,1675791353
172,bealanana,-14.55,48.7333,18.5,98,98,0.61,MG,1675791353
173,mount gambier,-37.8333,140.7667,11.91,90,75,3.47,AU,1675791354
174,muzhi,65.3667,64.6667,-21.57,95,72,3.75,RU,1675791354
175,ahipara,-35.1667,173.1667,18.01,80,97,2.28,NZ,1675791354
176,loralai,30.3705,68.598,10.85,21,47,1.41,PK,1675791355
177,tomatlan,19.9333,-105.25,29.66,42,59,3.05,MX,1675791355
178,cassilandia,-19.1133,-51.7342,26.56,70,96,3.71,BR,1675791109
179,jalu,29.0331,21.5482,13.27,46,72,2.71,LY,1675791355
180,weligama,5.9667,80.4167,24.42,89,29,0.46,LK,1675791356
181,aden,12.7794,45.0367,24.85,68,15,4.76,YE,1675791356
182,saldanha,-33.0117,17.9442,22.03,89,100,10.57,ZA,1675791356
183,canillo,42.5833,1.6667,-1.63,91,95,2.37,AD,1675791357
184,anchorage,61.2181,-149.9003,-5.51,91,40,2.24,US,1675791160
185,cartagena,10.3997,-75.5144,31.79,58,0,6.69,CO,1675791343
186,asmar,35.0333,71.3581,7.05,46,0,4.95,AF,1675791357
187,sayyan,15.1718,44.3244,14.71,54,9,1.05,YE,1675791358
188,oudtshoorn,-33.5907,22.2014,20.2,79,93,3.7,ZA,1675791358
189,shostka,51.863,33.4698,-8.99,94,21,3.56,UA,1675791358
190,watertown,42.3709,-71.1828,2.81,55,0,3.6,US,1675791359
191,saint-augustin,51.226,-58.6502,-13.23,58,3,1.04,CA,1675791359
192,hofn,64.2539,-15.2082,1.28,73,100,8.99,IS,1675791294
193,inza,53.8533,46.3586,-17.52,100,75,1.74,RU,1675791360
194,marsabit,2.3284,37.9899,22.95,34,36,2.86,KE,1675791360
195,klyuchi,52.2667,79.1667,-13.87,97,97,2.18,RU,1675791360
196,saint anthony,45.0205,-93.218,0.79,71,0,5.66,US,1675791361
197,oistins,13.0667,-59.5333,27.05,69,75,8.23,BB,1675791331
198,jiangyou,31.7667,104.7167,10.59,82,100,1.38,CN,1675791361
199,margate,51.3813,1.3862,4.94,83,8,3.16,GB,1675791362
200,the valley,18.217,-63.0578,27.92,88,40,5.66,AI,1675791365
201,emerald,-23.5333,148.1667,21.3,84,32,3.23,AU,1675791366
202,texas city,29.3838,-94.9027,23.37,80,100,5.14,US,1675791253
203,castro,-24.7911,-50.0119,26.39,49,69,0.41,BR,1675791305
204,banikoara,11.2985,2.4386,30.45,12,100,2.54,BJ,1675791371
205,riwaka,-41.0833,173.0,13.89,85,5,1.93,NZ,1675791373
206,aklavik,68.2191,-135.0107,-31.0,76,100,2.06,CA,1675791374
207,namwala,-15.7504,26.4384,19.96,91,80,0.51,ZM,1675791377
208,saint-philippe,-21.3585,55.7679,26.77,85,59,6.17,RE,1675791378
209,pesca,5.55,-73.05,17.62,51,30,3.8,CO,1675791379
210,san miguelito,9.0333,-79.5,31.48,57,40,7.2,PA,1675791380
211,constantine,36.365,6.6147,11.67,50,75,5.14,DZ,1675791383
212,tasiilaq,65.6145,-37.6368,-15.91,53,43,6.12,GL,1675791386
213,wetaskiwin,52.9668,-113.3687,2.71,88,14,2.28,CA,1675791385
214,bandarbeyla,9.4942,50.8122,24.78,74,75,6.14,SO,1675791397
215,azul,-36.777,-59.8585,36.57,17,0,5.38,AR,1675791131
216,luwuk,-0.9516,122.7875,25.95,79,100,1.9,ID,1675791398
217,buchanan,5.8808,-10.0467,27.27,78,96,4.18,LR,1675791398
218,puerto escondido,15.85,-97.0667,31.46,66,0,2.06,MX,1675791399
219,inirida,3.8653,-67.9239,32.3,53,60,0.95,CO,1675791399
220,santa fe,-31.6333,-60.7,38.88,23,0,1.79,AR,1675791364
221,san jose,37.3394,-121.895,13.9,71,40,1.34,US,1675791110
222,gamba,-2.65,10.0,25.91,77,60,2.29,GA,1675791400
223,khatanga,71.9667,102.5,-43.77,100,69,0.61,RU,1675791400
224,beyneu,45.3167,55.2,0.51,80,100,11.46,KZ,1675791401
225,esperance,-33.8667,121.9,19.91,73,35,5.21,AU,1675791401
226,ewo,-0.8725,14.8206,26.57,64,87,1.61,CG,1675791402
227,canelli,44.7215,8.2924,2.27,48,0,1.06,IT,1675791402
228,banda aceh,5.5577,95.3222,25.21,86,91,2.14,ID,1675791402
229,kodiak,57.79,-152.4072,-2.27,69,0,4.63,US,1675791224
230,cockburn town,21.4612,-71.1419,25.05,76,1,9.01,TC,1675791403
231,mont-dore,-22.2833,166.5833,22.99,85,86,3.18,NC,1675791403
232,klaksvik,62.2266,-6.589,7.51,80,86,20.67,FO,1675791404
233,corinth,37.9407,22.9573,5.5,75,97,5.85,GR,1675791404
234,sao filipe,14.8961,-24.4956,21.31,61,0,5.71,CV,1675791404
235,manakara,-22.1333,48.0167,23.23,85,100,0.62,MG,1675791405
236,brigantine,39.4101,-74.3646,7.33,69,0,3.6,US,1675791360
237,tsogni,-2.7942,10.0988,25.59,78,55,2.19,GA,1675791405
238,constitucion,-35.3333,-72.4167,21.84,52,4,2.11,CL,1675791405
239,valreas,44.3837,4.9908,5.79,92,9,2.07,FR,1675791406
240,anqing,30.5092,117.0506,9.3,90,100,3.22,CN,1675791406
241,san andres,12.5847,-81.7006,30.01,66,20,7.72,CO,1675791240
242,eureka,40.8021,-124.1637,7.89,97,100,1.24,US,1675791407
243,mabaruma,8.2,-59.7833,29.41,56,28,3.41,GY,1675791407
244,shimoda,34.6667,138.95,9.5,74,95,2.65,JP,1675791165
245,batsfjord,70.6345,29.7185,1.96,86,100,24.69,NO,1675791408
246,ostrow mazowiecka,52.8024,21.8951,0.9,72,100,2.24,PL,1675791357
247,nantucket,41.2835,-70.0995,2.27,75,100,8.75,US,1675791341
248,omagh,54.6,-7.3,6.74,86,99,2.16,GB,1675791408
249,nouadhibou,20.931,-17.0347,23.99,20,0,8.23,MR,1675791409
250,arcata,40.8665,-124.0828,7.89,92,0,1.54,US,1675791409
251,camopi,3.1655,-52.3158,26.9,87,78,2.08,GF,1675791409
252,noyabrsk,63.1994,75.4507,-26.89,100,92,3.94,RU,1675791410
253,smolenskoye,52.3044,85.0781,-6.01,97,100,1.79,RU,1675791410
254,lasa,46.6166,10.7002,2.49,77,2,1.92,IT,1675791411
255,junction city,39.0286,-96.8314,9.78,50,0,3.13,US,1675791411
256,sembakung,3.8167,117.25,22.76,99,100,2.28,ID,1675791412
257,wageningen,51.9667,5.6667,3.28,85,1,1.03,NL,1675791413
258,lompoc,34.6391,-120.4579,15.99,71,0,0.89,US,1675791406
259,teacapan,22.55,-105.75,24.14,53,73,2.84,MX,1675791413
260,yulara,-25.2406,130.9889,26.64,25,0,3.49,AU,1675791414
261,hobyo,5.3505,48.5268,24.94,78,21,6.11,SO,1675791414
262,souillac,-20.5167,57.5167,27.21,78,75,5.14,MU,1675791415
263,tessalit,20.1986,1.0114,28.04,11,100,3.71,ML,1675791415
264,dudinka,69.4058,86.1778,-21.88,100,95,1.52,RU,1675791416
265,porto velho,-8.7619,-63.9039,26.03,89,40,2.06,BR,1675791366
266,seddon,-37.8068,144.8916,16.65,75,75,3.6,AU,1675791416
267,culaman,5.9603,125.6586,25.76,81,100,5.61,PH,1675791416
268,nazareno etla,17.1783,-96.8239,18.44,34,9,1.02,MX,1675791417
269,victoria,22.2855,114.1577,20.21,92,57,4.02,HK,1675791417
270,mezen,65.8522,44.24,-2.23,93,100,5.88,RU,1675791418
271,bara,10.3744,10.7288,28.93,14,89,4.41,NG,1675791418
272,nishihara,26.1842,127.7558,19.6,88,75,5.14,JP,1675791170
273,bad salzdetfurth,52.0578,10.0058,1.51,54,18,1.29,DE,1675791418
274,leningradskiy,69.3833,178.4167,-31.66,97,100,2.73,RU,1675791419
275,bayir,37.2687,28.2167,2.29,72,6,4.71,TR,1675791419
276,zirl,47.3028,11.2745,-6.68,59,0,1.03,AT,1675791419
277,muisne,0.6,-80.0333,27.9,72,18,4.41,EC,1675791420
278,mawlaik,23.6333,94.4167,14.71,44,0,0.62,MM,1675791420
279,jati,24.3539,68.2671,22.22,41,15,3.52,PK,1675791420
280,namatanai,-3.6667,152.4333,26.07,82,100,1.47,PG,1675791421
281,itupeva,-23.1531,-47.0578,26.69,88,75,2.06,BR,1675791422
282,beitbridge,-22.2167,30.0,29.62,42,100,6.3,ZW,1675791424
283,slave lake,55.2834,-114.769,0.99,69,0,4.63,CA,1675791427
284,kodinsk,58.6881,99.1844,-14.36,97,100,1.41,RU,1675791430
285,police,53.5521,14.5718,-0.55,78,95,0.45,PL,1675791433
286,stanovoye,52.7638,38.3582,-9.95,94,26,3.82,RU,1675791433
287,saskylakh,71.9167,114.0833,-35.3,100,100,1.0,RU,1675791435
288,sampang,-7.1872,113.2394,25.0,89,100,3.54,ID,1675791436
289,talnakh,69.4865,88.3972,-22.11,97,99,2.75,RU,1675791437
290,dunedin,-45.8742,170.5036,10.71,74,73,3.18,NZ,1675791415
291,palmer,42.1584,-72.3287,4.06,27,41,0.89,US,1675791439
292,marquette,46.5333,-87.6335,1.85,69,97,6.19,US,1675791440
293,praia da vitoria,38.7333,-27.0667,13.2,71,75,8.78,PT,1675791441
294,flinders,-34.5833,150.8552,21.21,90,100,1.79,AU,1675791444
295,fayaoue,-20.65,166.5333,26.63,82,100,3.43,NC,1675791445
296,yar-sale,66.8333,70.8333,-22.55,97,50,4.99,RU,1675791449
297,kungurtug,50.5994,97.5228,-24.37,98,51,0.84,RU,1675791453
298,celestun,20.8667,-90.4,28.48,53,2,1.78,MX,1675791455
299,avera,33.194,-82.5271,19.19,42,73,2.99,US,1675791456
300,taoudenni,22.6783,-3.9836,24.69,15,79,4.46,ML,1675791456
301,severo-kurilsk,50.6789,156.125,-5.37,66,80,5.83,RU,1675791457
302,iqaluit,63.7506,-68.5145,-32.95,67,75,2.57,CA,1675791243
303,barabinsk,55.3571,78.357,-22.69,100,92,2.06,RU,1675791457
304,donskoye,45.4552,41.9741,-6.93,96,100,4.95,RU,1675791457
305,isangel,-19.55,169.2667,25.8,86,100,2.21,VU,1675791458
306,patti,31.2808,74.8572,13.04,42,0,2.25,IN,1675791459
307,jiayuguan,39.8167,98.3,-3.32,51,97,1.26,CN,1675791459
308,sri aman,1.2376,111.4621,22.85,99,98,0.33,MY,1675791459
309,la libertad,-2.2333,-80.9,29.81,62,0,3.6,EC,1675791460
310,lorengau,-2.0226,147.2712,25.91,91,100,6.34,PG,1675791460
311,saint-georges,12.0564,-61.7485,27.82,74,75,9.26,GD,1675791460
312,coihaique,-45.5752,-72.0662,23.34,46,40,4.12,CL,1675791461
313,amga,60.8953,131.9608,-37.68,100,100,0.7,RU,1675791462
314,belyy yar,53.6039,91.3903,-16.75,87,100,2.0,RU,1675791463
315,groningen,53.25,6.75,2.85,82,0,1.54,NL,1675791164
316,kieta,-6.2167,155.6333,26.66,84,99,2.31,PG,1675791463
317,alice springs,-23.7,133.8833,25.75,69,34,0.51,AU,1675791464
318,kununurra,-15.7667,128.7333,24.99,83,1,1.54,AU,1675791464
319,sayan,-11.1361,-77.1933,28.46,52,14,4.8,PE,1675791465
320,sao jose de ribamar,-2.5619,-44.0542,29.21,73,100,4.8,BR,1675791465
321,geraldton,-28.7667,114.6,20.23,83,75,4.12,AU,1675791466
322,yantal,56.8471,105.2542,-23.8,100,100,1.63,RU,1675791467
323,port lincoln,-34.7333,135.8667,17.66,81,0,6.54,AU,1675791362
324,kamenka,51.3223,42.7678,-12.34,94,8,4.61,RU,1675791467
325,katsuura,35.1333,140.3,10.45,84,100,6.55,JP,1675791467
326,kalemie,-5.9475,29.1947,21.09,88,97,1.94,CD,1675791468
327,at-bashi,41.1702,75.8106,-15.91,60,4,1.88,KG,1675791468
328,wilmington,34.2257,-77.9447,19.95,61,0,3.09,US,1675791420
329,lokosovo,61.1333,74.8167,-23.96,100,72,2.44,RU,1675791469
330,naze,28.3667,129.4833,16.51,76,51,5.26,JP,1675791469
331,tootsi,58.5781,24.7925,-0.14,91,94,4.08,EE,1675791470
332,bilma,18.6853,12.9164,23.44,15,37,2.61,NE,1675791239
333,nalut,30.3333,10.85,16.24,31,100,5.35,LY,1675791221
334,huarmey,-10.0681,-78.1522,25.43,71,31,4.5,PE,1675791459
335,kem,64.9555,34.5793,2.65,90,100,7.92,RU,1675791470
336,sao joao da barra,-21.6403,-41.0511,31.05,77,98,3.12,BR,1675791373
337,koumac,-20.5667,164.2833,25.91,86,100,1.27,NC,1675791471
338,nome,64.5011,-165.4064,-21.61,91,0,0.0,US,1675791471
339,galveston,29.3669,-94.9669,23.92,83,100,5.14,US,1675791471
340,inhambane,-23.865,35.3833,27.99,78,40,4.63,MZ,1675791472
341,iquique,-20.2208,-70.1431,26.02,73,44,5.16,CL,1675791204
342,yatou,37.15,122.3833,0.2,66,24,2.93,CN,1675791472
343,goundi,9.3627,17.366,31.51,9,26,1.82,TD,1675791472
344,shaunavon,49.6501,-108.4181,-1.12,77,7,5.67,CA,1675791473
345,san patricio,28.017,-97.5169,25.97,72,100,8.85,US,1675791473
346,kutum,14.2,24.6667,19.44,19,35,5.66,SD,1675791473
347,nilanga,18.1,76.7667,23.96,28,74,3.51,IN,1675791474
348,manapla,10.9167,123.1333,24.54,86,89,4.6,PH,1675791474
349,guaimaca,14.5333,-86.8167,24.96,50,75,4.01,HN,1675791474
350,yerbogachen,61.2767,108.0108,-29.86,100,97,0.94,RU,1675791475
351,san quintin,30.4833,-115.95,16.93,32,0,0.69,MX,1675791475
352,sauce,-34.6469,-56.0628,33.96,26,45,3.87,UY,1675791475
353,deputatskiy,69.3,139.9,-43.64,99,58,2.04,RU,1675791476
354,grafton,42.207,-71.6856,2.36,36,0,3.09,US,1675791476
355,ankpa,7.3706,7.6253,29.84,14,40,1.56,NG,1675791476
356,pasni,25.2631,63.471,22.04,66,2,4.3,PK,1675791477
357,olafsvik,64.8945,-23.7142,-2.0,53,100,18.19,IS,1675791218
358,kenai,60.5544,-151.2583,-5.97,100,100,2.57,US,1675791331
359,le port,-20.9373,55.2919,27.0,80,31,2.95,RE,1675791477
360,sorland,67.667,12.6934,4.92,81,75,14.4,NO,1675791478
361,snezhnogorsk,69.1933,33.2531,2.88,72,87,12.46,RU,1675791478
362,cangucu,-31.395,-52.6756,31.56,48,53,3.48,BR,1675791478
363,beyla,8.6833,-8.6333,32.15,25,100,1.13,GN,1675791479
364,xuanzhou,30.9525,118.7553,8.12,92,100,3.35,CN,1675791479
365,rodrigues alves,-7.738,-72.6509,24.11,96,99,1.1,BR,1675791479
366,jacareacanga,-6.2222,-57.7528,25.16,81,100,1.64,BR,1675791480
367,ixtapa,20.7,-105.2,22.57,68,20,0.0,MX,1675791480
368,guadalupe y calvo,26.1,-106.9667,13.77,17,52,4.63,MX,1675791480
369,tinyahuarco,-10.75,-76.3,10.35,60,62,5.63,PE,1675791481
370,zeya,53.75,127.2667,-33.91,95,22,1.58,RU,1675791481
371,port shepstone,-30.7414,30.455,24.94,90,79,2.59,ZA,1675791481
372,bethel,41.3712,-73.414,4.54,36,0,3.09,US,1675791404
373,los palacios,22.5872,-83.2486,28.92,50,9,6.42,CU,1675791489
374,lincoln,40.8,-96.667,7.38,46,0,3.09,US,1675791340
375,tabou,4.423,-7.3528,27.65,77,91,4.27,CI,1675791492
376,college,64.8569,-147.8028,-13.78,78,100,2.06,US,1675791493
377,dandong,40.1292,124.3947,-2.62,44,14,3.1,CN,1675791494
378,katima mulilo,-17.5,24.2667,22.6,79,95,2.63,NA,1675791494
379,estevan,49.1334,-102.9842,0.19,80,0,6.69,CA,1675791496
380,derzhavinsk,51.1,66.3167,-20.81,100,87,1.33,KZ,1675791499
381,tekeli,44.83,78.8239,-7.18,67,69,4.61,KZ,1675791499
382,taltal,-25.4,-70.4833,23.3,71,27,3.36,CL,1675791482
383,bom jesus do itabapoana,-21.1339,-41.6797,28.72,77,100,1.0,BR,1675791502
384,kansk,56.2017,95.7175,-8.03,96,100,2.39,RU,1675791503
385,muros,42.7762,-9.0603,10.93,65,0,9.29,ES,1675791507
386,komsomolskiy,40.4272,71.7189,1.4,93,12,1.03,UZ,1675791513
387,pochutla,15.7432,-96.4661,30.9,36,0,4.1,MX,1675791514
388,matara,5.9485,80.5353,24.25,89,36,1.12,LK,1675791518
389,high prairie,55.4334,-116.4858,-1.39,79,66,2.93,CA,1675791519
390,chegdomyn,51.1167,133.0167,-33.54,99,78,0.75,RU,1675791520
391,plettenberg bay,-34.0527,23.3716,19.97,88,94,1.72,ZA,1675791521
392,rosarito,32.3333,-117.0333,18.01,32,0,2.54,MX,1675791370
393,erzin,36.9559,36.2,2.93,57,40,2.85,TR,1675791521
394,manta,-0.95,-80.7333,29.88,66,40,4.12,EC,1675791522
395,mayna,54.1135,47.6231,-20.07,100,55,2.12,RU,1675791522
396,aushiger,43.3961,43.7317,-7.79,86,75,2.0,RU,1675791523
397,hambantota,6.1241,81.1185,25.05,83,44,5.88,LK,1675791302
398,peniche,39.3558,-9.3811,14.2,60,2,4.9,PT,1675791523
399,boone,39.0334,-92.3335,9.47,65,51,0.89,US,1675791366
400,nehe,48.4833,124.8333,-26.71,100,70,0.75,CN,1675791523
401,grindavik,63.8424,-22.4338,-2.03,86,75,13.38,IS,1675791451
402,fortuna,40.5982,-124.1573,7.74,95,0,3.09,US,1675791510
403,massakory,12.996,15.7293,27.55,13,99,4.51,TD,1675791524
404,buraydah,26.326,43.975,14.25,39,100,3.31,SA,1675791524
405,manzhouli,49.6,117.4333,-19.16,97,46,4.02,CN,1675791525
406,meulaboh,4.1363,96.1285,24.51,85,95,2.22,ID,1675791525
407,birao,10.2849,22.7882,27.19,11,25,3.07,CF,1675791526
408,bontang,0.1333,117.5,24.84,88,100,4.33,ID,1675791526
409,lensk,60.7253,114.9278,-28.76,99,100,1.05,RU,1675791527
410,port macquarie,-31.4333,152.9167,19.76,80,46,1.08,AU,1675791527
411,saint george,37.1041,-113.5841,8.47,52,0,2.57,US,1675791301
412,sunrise manor,36.2111,-115.0731,12.95,32,0,8.23,US,1675791527
413,coquimbo,-29.9533,-71.3436,21.85,68,0,5.66,CL,1675791528
414,evensk,61.95,159.2333,-30.37,77,33,4.08,RU,1675791523
415,murmansk,68.0,34.0,2.73,87,100,6.34,RU,1675791528
416,pangkalanbuun,-2.6833,111.6167,23.38,93,100,0.97,ID,1675791528
417,omachi,36.5,137.8667,1.34,98,91,0.44,JP,1675791529
418,kysyl-syr,63.8986,122.7617,-43.52,100,100,0.19,RU,1675791529
419,pangai,-19.8,-174.35,25.06,88,75,4.12,TO,1675791529
420,portland,45.5234,-122.6762,8.38,89,100,7.6,US,1675791257
421,qaqortoq,60.7167,-46.0333,-15.59,55,36,6.42,GL,1675791530
422,auki,-8.7676,160.7034,25.12,91,100,2.36,SB,1675791530
423,soyo,-6.1349,12.3689,27.04,82,70,5.15,AO,1675791531
424,malkangiri,18.35,81.9,19.19,37,7,1.13,IN,1675791531
425,gambela,8.25,34.5833,32.06,18,60,1.68,ET,1675791531
426,tiksi,71.6872,128.8694,-32.19,98,100,1.68,RU,1675791532
427,la plaine,15.3333,-61.25,28.16,57,75,4.12,DM,1675791532
428,gat,31.61,34.7642,9.38,100,91,8.32,IL,1675791533
429,gazli,40.1333,63.45,8.44,54,79,7.1,UZ,1675791533
430,carutapera,-1.195,-46.02,27.8,74,78,3.57,BR,1675791533
431,half moon bay,37.4636,-122.4286,13.84,77,75,0.0,US,1675791534
432,krasnoselkup,65.7,82.4667,-22.77,100,97,4.27,RU,1675791534
433,kamskiye polyany,55.4307,51.4171,-13.55,100,55,0.95,RU,1675791534
434,minab,27.1467,57.0801,19.18,72,22,1.03,IR,1675791535
435,olinda,-8.0089,-34.8553,29.85,51,20,5.66,BR,1675791535
436,suntar,62.1444,117.6319,-38.63,100,99,0.65,RU,1675791535
437,lerwick,60.1545,-1.1494,7.0,72,29,10.18,GB,1675791536
438,santa vitoria do palmar,-33.5189,-53.3681,29.17,44,3,4.16,BR,1675791536
439,dori,14.0354,-0.0345,32.09,10,82,4.48,BF,1675791536
440,atar,20.5169,-13.0499,23.51,14,42,6.96,MR,1675791460
441,vicuna,-30.0319,-70.7081,34.32,37,0,4.27,CL,1675791537
442,la ronge,55.1001,-105.2842,-7.86,73,75,1.03,CA,1675791537
443,kroya,-7.6331,109.2461,24.48,92,100,1.62,ID,1675791538
444,tegal,-6.8694,109.1402,25.13,89,100,3.32,ID,1675791538
445,victor harbor,-35.5667,138.6167,15.93,85,0,3.3,AU,1675791409
446,lagoa,39.05,-27.9833,12.99,61,67,8.89,PT,1675791538
447,waipawa,-41.4122,175.5153,13.07,87,2,2.6,NZ,1675791539
448,kozhva,65.1073,57.0459,-13.83,91,100,6.05,RU,1675791539
449,shaoyang,27.2315,111.4525,8.01,90,100,1.25,CN,1675791539
450,bitkine,11.9801,18.2138,28.14,13,35,4.16,TD,1675791540
451,along,28.1667,94.7667,12.55,86,87,0.61,IN,1675791540
452,la palma,33.8464,-118.0467,20.65,36,0,2.68,US,1675791541
453,kjollefjord,70.9457,27.3465,3.03,65,40,18.01,NO,1675791541
454,kuvandyk,51.4781,57.3552,-18.83,99,15,2.39,RU,1675791542
455,morehead,37.2711,-87.1764,17.77,55,100,6.17,US,1675791544
456,cap malheureux,-19.9842,57.6142,27.48,74,17,3.13,MU,1675791546
457,makakilo city,21.3469,-158.0858,23.18,80,0,6.69,US,1675791547
458,cedar city,37.6775,-113.0619,-0.34,86,0,2.57,US,1675791486
459,xining,36.6167,101.7667,-1.97,54,100,1.16,CN,1675791550
460,svetlogorsk,52.6333,29.7333,-9.59,96,31,1.83,BY,1675791553
461,havelock,34.8791,-76.9013,16.08,63,0,3.58,US,1675791562
462,berlevag,70.8578,29.0864,3.0,80,40,18.52,NO,1675791565
463,broadstairs,51.3591,1.4394,4.88,75,8,3.33,GB,1675791574
464,ketchikan,55.3422,-131.6461,3.99,93,0,0.0,US,1675791574
465,gondanglegi,-7.7479,112.0132,23.43,94,100,1.07,ID,1675791574
466,skjervoy,70.0311,20.9714,2.0,93,87,16.27,NO,1675791576
467,derbent,42.0678,48.2899,2.4,76,100,6.24,RU,1675791579
468,tatawin,32.9297,10.4518,11.83,57,39,6.14,TN,1675791579
469,carrick-on-suir,52.3492,-7.4131,9.13,89,98,1.33,IE,1675791580
470,fagersta,60.0042,15.7932,3.88,87,100,4.28,SE,1675791580
471,bulgan,48.8125,103.5347,-19.27,93,10,1.51,MN,1675791581
472,moron,-34.6534,-58.6198,37.23,28,25,2.64,AR,1675791581
473,nago,26.5881,127.9761,18.47,79,92,4.91,JP,1675791582
474,broken hill,-31.95,141.4333,22.26,28,0,4.49,AU,1675791582
475,two hills,53.7169,-111.7518,3.2,80,70,6.69,CA,1675791583
476,roseland,38.4221,-122.728,12.87,81,20,0.89,US,1675791364
477,sakakah,29.9697,40.2064,12.76,40,8,4.68,SA,1675791583
478,goderich,43.7501,-81.7165,7.17,81,88,8.75,CA,1675791503
479,islamkot,24.6997,70.177,20.69,25,36,2.83,PK,1675791584
480,blessington,53.17,-6.5325,8.74,81,75,2.57,IE,1675791584
481,moose factory,51.2585,-80.6094,-2.0,80,100,8.75,CA,1675791585
482,fairbanks,64.8378,-147.7164,-13.77,82,100,2.06,US,1675791585
483,aripuana,-9.1667,-60.6333,22.91,94,100,0.94,BR,1675791585
484,labuhan,-6.8844,112.2051,24.55,91,100,3.31,ID,1675791586
485,plattsburgh,44.6995,-73.4529,2.43,48,59,4.92,US,1675791541
486,kyshtovka,56.555,76.6271,-18.89,100,98,1.77,RU,1675791586
487,port hedland,-20.3167,118.5667,28.03,83,5,3.09,AU,1675791585
488,gushikawa,26.3544,127.8686,19.57,88,75,0.0,JP,1675791587
489,clarence town,-32.5833,151.7833,23.25,95,5,1.22,AU,1675791397
490,bathsheba,13.2167,-59.5167,27.34,69,75,8.23,BB,1675791548
491,port hardy,50.6996,-127.4199,5.1,93,75,1.03,CA,1675791423
492,vanimo,-2.6741,141.3028,24.66,96,100,3.55,PG,1675791587
493,nizwa,22.9333,57.5333,23.57,28,40,0.53,OM,1675791326
494,bomet,-0.7813,35.3416,17.64,60,97,0.75,KE,1675791588
495,markova,48.6758,24.4138,-4.97,97,100,1.03,UA,1675791588
496,hasaki,35.7333,140.8333,8.22,82,100,10.25,JP,1675791588
497,sinnamary,5.3833,-52.95,26.69,82,57,5.13,GF,1675791589
498,wanning,18.8003,110.3967,22.25,90,62,0.24,CN,1675791589
499,kavieng,-2.5744,150.7967,26.2,84,100,2.45,PG,1675791589
500,artesia,33.8658,-118.0831,20.63,38,0,2.57,US,1675791590
501,baghdad,33.3406,44.4009,13.95,44,0,3.09,IQ,1675791411
502,emmett,43.8735,-116.4993,6.87,76,81,3.58,US,1675791540
503,campechuela,20.2342,-77.2789,31.64,44,4,8.06,CU,1675791590
504,oksovskiy,62.6062,39.8984,-3.54,91,100,4.53,RU,1675791591
505,poronaysk,49.2167,143.1167,-23.4,100,97,1.84,RU,1675791403
506,los llanos de aridane,28.6585,-17.9182,15.86,76,75,6.69,ES,1675791591
507,tautira,-17.7333,-149.15,26.42,69,49,3.88,PF,1675791592
508,dicabisagan,17.0818,122.4157,23.33,92,21,0.69,PH,1675791592
509,hermiston,45.8404,-119.2895,9.6,72,100,2.57,US,1675791593
510,villeneuve-sur-lot,44.5,0.6667,8.97,65,72,6.19,FR,1675791593
511,general roca,-39.0333,-67.5833,37.57,10,0,5.06,AR,1675791593
512,impfondo,1.6381,18.0667,29.12,29,88,1.29,CG,1675791593
513,leo,11.1,-2.1,33.37,12,94,3.93,BF,1675791594
514,luanda,-8.8368,13.2343,26.68,74,81,6.95,AO,1675791594
515,bima,-8.4667,118.7167,24.89,95,91,1.55,ID,1675791594
516,san cristobal,7.7669,-72.225,26.1,40,39,3.3,VE,1675791595
517,cooma,-36.2333,149.1333,13.74,93,99,0.89,AU,1675791595
518,tromso,69.6496,18.957,1.01,93,75,12.86,NO,1675791596
519,trelew,-43.249,-65.3051,30.69,17,59,8.19,AR,1675791596
520,turinsk,58.0458,63.696,-24.52,100,99,1.04,RU,1675791596
521,zhangjiakou,40.81,114.8794,-5.94,73,5,2.5,CN,1675791597
522,mincivan,39.0294,46.7185,6.3,88,82,2.01,AZ,1675791597
523,san rafael del sur,11.8485,-86.4384,31.54,41,76,8.48,NI,1675791597
524,myrtle beach,33.6891,-78.8867,19.08,56,0,2.57,US,1675791598
525,marsh harbour,26.5412,-77.0636,21.92,62,6,7.92,BS,1675791598
526,borogontsy,62.6683,131.1683,-42.27,100,100,0.15,RU,1675791599
527,morristown,36.214,-83.2949,16.88,41,0,0.0,US,1675791353
528,north myrtle beach,33.816,-78.68,19.1,59,76,2.22,US,1675791568
529,patnos,39.2336,42.8634,-9.35,87,98,1.5,TR,1675791599
530,itupiranga,-5.1347,-49.3267,31.18,72,86,1.63,BR,1675791599
531,begunitsy,59.5855,29.3176,-4.57,91,86,4.28,RU,1675791600
532,port said,31.2565,32.2841,11.99,76,40,6.17,EG,1675791601
533,cumberland,35.0502,-78.8664,18.6,48,0,2.57,US,1675791407
534,udachnyy,66.4167,112.4,-36.42,66,97,1.21,RU,1675791462
535,libertador general san martin,-23.8064,-64.7876,36.1,21,90,3.53,AR,1675791612
536,kitimat,54.0524,-128.6534,0.21,31,100,0.8,CA,1675791448
537,rominimbang,7.5,124.3,18.47,87,99,1.55,PH,1675791625
538,omboue,-1.5746,9.2618,26.19,80,79,2.42,GA,1675791630
539,vestmannaeyjar,63.4427,-20.2734,0.48,71,100,14.07,IS,1675791634
540,dingle,10.9995,122.6711,23.17,92,100,3.45,PH,1675791547
541,laguna,38.421,-121.4238,12.27,75,0,1.54,US,1675791357
542,tiznit,29.5833,-9.5,11.77,59,3,4.3,MA,1675791636
543,mirnyy,62.5353,113.9611,-39.74,100,92,1.01,RU,1675791640
544,jalgaon,21.0167,75.5667,23.21,28,13,1.85,IN,1675791641
545,caarapo,-22.6342,-54.8222,30.29,47,62,0.79,BR,1675791641
546,petropavlovsk-kamchatskiy,53.0452,158.6483,-21.67,77,0,3.0,RU,1675791356
547,leeton,-34.5667,146.4,20.33,71,0,3.56,AU,1675791642
548,rameswaram,9.2833,79.3,25.64,79,2,6.8,IN,1675791642
549,tolaga bay,-38.3667,178.3,16.44,81,54,1.94,NZ,1675791643
550,kardla,58.9978,22.7492,1.14,86,99,6.38,EE,1675791643
551,saint-pierre,-21.3393,55.4781,26.82,69,20,3.09,RE,1675791644
552,campina verde,-19.5356,-49.4864,27.63,68,86,2.62,BR,1675791644
553,gibsons,49.3997,-123.5027,8.0,92,100,1.34,CA,1675791376
554,vostok,46.4856,135.8833,-20.01,99,100,2.03,RU,1675791397
555,changde,29.0464,111.6783,8.11,88,99,1.36,CN,1675791645
556,abbeville,50.1,1.8333,3.98,67,0,2.91,FR,1675791523
557,machico,32.7,-16.7667,17.62,74,40,3.6,PT,1675791645
558,taruma,-22.7467,-50.5772,21.96,89,99,0.72,BR,1675791646
559,rocha,-34.4833,-54.3333,32.27,33,3,6.06,UY,1675791569
560,roald,62.5833,6.1333,6.2,81,75,5.14,NO,1675791646
561,hami,42.8,93.45,0.68,47,100,1.61,CN,1675791647
562,fare,-16.7,-151.0167,26.64,77,21,5.44,PF,1675791647
563,jumla,29.2747,82.1838,1.93,82,30,1.44,NP,1675791550
564,les cayes,18.2,-73.75,28.51,58,2,5.3,HT,1675791648
565,sao miguel do guama,-1.6267,-47.4833,28.07,82,69,3.3,BR,1675791418
566,bar-le-duc,48.75,5.1667,3.21,62,0,4.81,FR,1675791648
567,lulea,65.5842,22.1547,4.04,65,0,1.54,SE,1675791649
568,caravelas,-17.7125,-39.2481,29.82,57,53,5.32,BR,1675791649
569,hirado,33.3597,129.5531,6.88,66,8,6.74,JP,1675791649
570,jatai,-17.8814,-51.7144,26.59,71,63,2.23,BR,1675791650
571,coahuayana,18.7333,-103.6833,29.99,46,20,2.38,MX,1675791650
572,kathmandu,27.7167,85.3167,11.12,66,20,1.54,NP,1675791651
573,ochsenfurt,49.6643,10.0623,1.83,55,22,2.71,DE,1675791651
